osm_id,osm_type,lat,lon,category,subcategory,name,amenity,shop,leisure,highway,public_transport,railway
29522464,node,40.6913445,29.4339183,transport,ferry_terminal,Topçular İskelesi,ferry_terminal,,,,station,
353037104,node,40.783852,29.4106839,transport,stop_position,Gebze,,,,,stop_position,stop
369307299,node,40.8015612,29.4313304,transport,bus_stop,İbrahimağa Caddesi,,,,bus_stop,stop_position,
618202136,node,40.8174306,29.5112085,transport,bus_stop,,,,,bus_stop,platform,
618204298,node,40.7844083,29.4106337,transport,bus_stop,Gebze İstasyon,,,,bus_stop,platform,
618204459,node,40.7972505,29.4401353,transport,bus_stop,,,,,bus_stop,platform,
722782778,node,40.5509514,29.4644179,daily,cafe,,cafe,,,,,
1295374386,node,40.7616545,29.9235042,transport,bus_stop,Fevziye Kuzey Yanyol 1,,,,bus_stop,platform,
1295456131,node,40.7597664,29.923282,transport,ferry_terminal,1 Mart İskelesi,ferry_terminal,,,,station,
1625834618,node,40.723035,29.8330144,transport,ferry_terminal,Gölcük Kavaklı Vapur İskelesi,ferry_terminal,,,,station,
1746431571,node,40.7435436,30.0577548,daily,convenience,Derya Market,,convenience,,,,
1823531871,node,40.776101,29.9742291,transport,bus_station,Kocaeli Şehirlerarası Otobüs Terminali,bus_station,,,,station,
1823531973,node,40.7735426,29.98032,daily,supermarket,Rim Al,,supermarket,,,,
1823532835,node,40.7671438,29.9665177,daily,restaurant,Hisar Restoran,restaurant,,,,,
1898330484,node,40.7660878,29.4218474,transport,ferry_terminal,Eskihisar Topçular Feribotu,ferry_terminal,,,,station,
2017664192,node,40.6947334,29.6146131,transport,ferry_terminal,Karamürsel Vapur İskelesi,ferry_terminal,,,,station,
2247437464,node,40.7632935,29.9126039,transport,bus_stop,Batı Terminali Giriş,,,,bus_stop,platform,
2247610486,node,40.7751965,29.9846314,transport,bus_stop,Akarca Sağlık Ocağı,,,,bus_stop,platform,
2247610613,node,40.7759727,29.9883662,transport,bus_stop,Milenium,,,,bus_stop,platform,
2247610711,node,40.7768529,29.9842102,transport,bus_stop,Koşar Sokak,,,,bus_stop,platform,
2247610800,node,40.7777654,29.9819657,transport,bus_stop,Çepni Sokak,,,,bus_stop,platform,
2252902495,node,40.7970188,29.4317403,daily,bank,,bank,,,,,
2252902510,node,40.7956184,29.4314182,daily,bank,Akbank,bank,,,,,
2252902515,node,40.7946234,29.4325771,transport,bus_stop,Tatlıkuyu Köprüsü,,,,bus_stop,platform,
2252902520,node,40.7933683,29.4333872,health,hospital,Gebze Şifa Tıp Merkezi,hospital,,,,,
2252902526,node,40.7959717,29.4321048,daily,bank,Halkbank,bank,,,,,
2371857877,node,40.7750208,29.9724054,transport,bus_stop,İzmit Otogar 3,,,,bus_stop,platform,
2375267692,node,40.8746412,29.4302939,transport,bus_stop,Balçık Köyü Cami,,,,bus_stop,stop_position,
2376048870,node,40.7619997,29.9113614,transport,bus_stop,Batı Terminali Peronlar,,,,bus_stop,stop_position,
2379571804,node,40.7970455,29.4339843,daily,bank,Denizbank,bank,,,,,
2379571806,node,40.7969153,29.433027,daily,bank,HSBC,bank,,,,,
2379571808,node,40.7977767,29.4311138,daily,cafe,Maksut Bey,cafe,pastry,,,,
2379571834,node,40.7943563,29.429858,transport,bus_stop,,,,,bus_stop,platform,
2380579591,node,40.7989692,29.431954,daily,restaurant,Paşa İskender,restaurant,,,,,
2380579595,node,40.8513286,29.4005636,daily,restaurant,Serçeşme,restaurant,,,,,
2381267943,node,40.8364783,29.4112929,transport,bus_stop,,,,,bus_stop,platform,
2381588280,node,40.8903942,29.532136,transport,bus_stop,Denizli Merkez Cami,,,,bus_stop,stop_position,
2562030343,node,40.7840847,29.6163185,transport,station,Hereke,,,,,station,station
2689569742,node,40.7471526,29.8261251,transport,stop_position,Derince Liman,,,,,stop_position,buffer_stop;station
2691855560,node,40.7615341,29.9264342,transport,bus_stop,,,,,bus_stop,platform,
2691907078,node,40.7615207,29.9234845,transport,bus_stop,Halkevi,,,,bus_stop,platform,
2692357799,node,40.7488982,30.0062115,transport,station,Köseköy,,,,,station,station
2796378195,node,40.7646018,29.9233623,daily,cafe,Eylül Cafe,cafe,,,,,
2796385489,node,40.7645531,29.9232255,daily,cafe,Nargile Kafe,cafe,,,,,
2796385490,node,40.7644302,29.9232162,daily,cafe,Fokurtu,cafe,,,,,
2796392774,node,40.7644014,29.939701,daily,cafe,Tchibo,cafe,,,,,
2840448019,node,40.7710356,29.9481846,daily,bank,Yapı Kredi,bank,,,,,
2840460802,node,40.7709315,29.9486522,daily,bank,QNB,bank,,,,,
2840473545,node,40.7719645,29.949891,daily,atm,,atm,,,,,
2840497613,node,40.7716169,29.9493193,daily,bank,TEB,bank,,,,,
2840499267,node,40.7715844,29.9492281,daily,supermarket,Şok,,supermarket,,,,
2840525565,node,40.7704101,29.9474777,daily,restaurant,ÇİĞKÖFTECİ SAİT USTA,restaurant,,,,,
2840526427,node,40.7722756,29.9510053,daily,restaurant,Altınoluk Pide,restaurant,,,,,
2840531604,node,40.7707378,29.9478515,daily,convenience,ŞENGÜL TİCARET,,convenience,,,,
2840543697,node,40.7722386,29.9508833,health,pharmacy,Üçyol Eczanesi,pharmacy,,,,,
2840548677,node,40.7722201,29.9507979,daily,supermarket,KAHVALTI DÜNYASI,,supermarket,,,,
2840555040,node,40.7726394,29.9535165,daily,cafe,TERAS KAFE,cafe,,,,,
2840555593,node,40.7726662,29.9535094,daily,bank,Ziraat Bankası,bank,,,,,
2841415975,node,40.7702434,29.9473,daily,convenience,ÇETİN PUB,,convenience,,,,
2841426811,node,40.7698518,29.9468882,daily,convenience,TAHSİN KURUYEMİŞ,,convenience,,,,
2841427170,node,40.7697726,29.946561,daily,convenience,ÇİÇEK MARKET,,convenience,,,,
2880222560,node,40.7633015,29.9264159,daily,bank,Yapı Kredi,bank,,,,,
2880222562,node,40.7633928,29.9269532,daily,bank,Garanti Bankası,bank,,,,,
2880222564,node,40.7634432,29.9272913,daily,restaurant,Bursa Kebapçısı,restaurant,,,,,
3123745967,node,40.6994229,29.6550095,health,clinic,Ereğli Sağlık Ocağı,clinic,,,,,
3124422637,node,40.6960721,29.628402,daily,cafe,Denizyıldızı Çay Bahçesi,cafe,,,,,
3124495529,node,40.7025174,29.6619131,daily,cafe,Çay Bahçesi,cafe,,,,,
3125458551,node,40.7066896,29.6945058,education,school,Anadolu Öğretmen Lisesi,school,,,,,
3125497424,node,40.7080538,29.707343,transport,bus_stop,,,,,bus_stop,,
3125497425,node,40.7078594,29.707515,transport,bus_stop,,,,,bus_stop,,
3126041474,node,40.7014295,29.6665855,transport,bus_stop,,,,,bus_stop,,
3126045443,node,40.7016879,29.66661,transport,bus_stop,,,,,bus_stop,,
3126156875,node,40.7050906,29.6845559,daily,restaurant,Kadirin Yeri,restaurant,,,,,
3678813820,node,40.7640497,29.9330991,daily,restaurant,Karadeniz Pidecisi,restaurant,,,,,
3678813821,node,40.7641287,29.9336066,daily,cafe,Cafe De La Rue,cafe,,,,,
3678816347,node,40.7641794,29.933952,daily,cafe,David People,cafe,,,,,
3700570802,node,40.7648089,29.9240893,daily,supermarket,A101,,supermarket,,,,
3700588467,node,40.7671818,29.9680091,daily,convenience,Opet Fullmarket,,convenience,,,,
3734860658,node,40.7676481,29.9374218,health,pharmacy,Elif Eczanesi,pharmacy,,,,,
3734860660,node,40.7672896,29.9374903,health,pharmacy,Yılmaz Eczanesi,pharmacy,,,,,
3734860661,node,40.7672562,29.9374964,health,pharmacy,Şifa Eczanesi,pharmacy,,,,,
3734860665,node,40.7670785,29.937526,health,pharmacy,Delilbaşı Eczanesi,pharmacy,,,,,
3734860666,node,40.7667781,29.9375988,health,pharmacy,Yeni Eczane,pharmacy,,,,,
3734866185,node,40.7667011,29.9376173,health,pharmacy,Maruf Eczanesi,pharmacy,,,,,
3734866190,node,40.766188,29.9379612,health,pharmacy,Eczane Zeliha,pharmacy,,,,,
3734892440,node,40.7644251,29.9009304,daily,cafe,Bayramoğlu Cafe & Market,cafe,,,,,
3740924324,node,40.7645657,29.9362851,daily,cafe,Kahve Dükkanı,cafe,,,,,
3762317834,node,40.768405,29.4235675,daily,cafe,,cafe,,,,,
3762318174,node,40.7683197,29.4234441,daily,restaurant,,restaurant,,,,,
3762318192,node,40.6908329,29.4345632,daily,cafe,,cafe,,,,,
3763232670,node,40.7668809,29.9276229,daily,supermarket,A101,,supermarket,,,,
3803112791,node,40.7791045,29.5235588,daily,supermarket,BİM,,supermarket,,,,
3824094759,node,40.7505036,30.0223508,daily,supermarket,BİM,,supermarket,,,,
3824196583,node,40.7542807,30.0231892,daily,bank,Ziraat Bankası,bank,,,,,
3824196584,node,40.7529488,30.0234209,daily,bank,Finansbank,bank,,,,,
3824196585,node,40.7530545,30.0231097,daily,restaurant,Halil İbrahim Sofrası,restaurant,,,,,
3824226387,node,40.7673687,29.9599409,daily,supermarket,BİM,,supermarket,,,,
3824226420,node,40.7699844,29.960671,health,pharmacy,Gümüş Eczanesi,pharmacy,,,,,
3824231562,node,40.7702071,29.9606623,health,pharmacy,Gültaç Eczanesi,pharmacy,,,,,
3824231563,node,40.7702991,29.9606464,health,pharmacy,Saygılı Eczanesi,pharmacy,,,,,
3824231564,node,40.7703291,29.9608802,daily,atm,Akbank ATM,atm,,,,,
4073197792,node,40.7003851,30.1422435,health,clinic,Maşukiye Aile Sağlık Merkezi,clinic,,,,,
4124136398,node,40.7548727,29.7960252,daily,supermarket,Kasarcı market,,supermarket,,,,
4124157789,node,40.7510298,29.7916687,daily,supermarket,Halkmar,,supermarket,,,,
4124157989,node,40.7505846,29.7899552,daily,supermarket,BİM,,supermarket,,,,
4124157990,node,40.7574729,29.7962702,daily,supermarket,BİM,,supermarket,,,,
4124158389,node,40.7529841,29.7947879,daily,convenience,,,convenience,,,,
4133895819,node,40.6992159,29.8152653,education,school,cahit külebi,school,,,,,
4139152689,node,40.7002567,29.8195317,daily,marketplace,Pazar Yeri,marketplace,,,,,
4192312548,node,40.8776788,29.4833901,daily,restaurant,Doga ciftligi,restaurant,,,,,
4212303093,node,40.7635593,29.9254906,daily,supermarket,Nizamettin Çetin,,supermarket,,,,
4213905090,node,40.6968103,30.0530983,daily,restaurant,Küçük Ev Restaurant ,restaurant,,,,,
4230294590,node,40.7410724,30.043726,daily,supermarket,Şok,,supermarket,,,,
4294584393,node,40.765858,29.7841443,daily,convenience,Altemur Market,,convenience,,,,
4294614290,node,40.7657455,29.7843339,daily,supermarket,BİM,,supermarket,,,,
4294813590,node,40.7659616,29.784289,daily,atm,,atm,,,,,
4295095168,node,40.8281422,29.4217598,daily,supermarket,Şok,,supermarket,,,,
4338040390,node,40.903622,29.4992399,education,school,Gayrettepe Rotary Kulübü Ortaokulu,school,,,,,
4370492389,node,40.8121412,29.4510059,daily,supermarket,Hakmar,,supermarket,,,,
4538589102,node,40.795384,29.4411723,daily,convenience,Koçtaş,,convenience,,,,
4538589103,node,40.7961444,29.4426951,daily,cafe,Özsüt,cafe,,,,,
4538597089,node,40.7952703,29.4428942,daily,restaurant,Hd İskender,restaurant,,,,,
4538600092,node,40.7961833,29.4418385,daily,cafe,Kahve Dünyası,cafe,,,,,
4539980226,node,40.8178783,29.5113659,daily,convenience,,,convenience,,,,
4539980227,node,40.8173275,29.5114782,daily,convenience,,,convenience,,,,
4556860491,node,40.6941413,30.1276587,daily,restaurant,,restaurant,,,,,
4559325190,node,40.6620179,30.2165287,daily,restaurant,Sopeli Doğal Yaşam Köyü,restaurant,,,,,
4573254499,node,40.7985429,29.4396654,daily,restaurant,Kumrucu Uğur,restaurant,,,,,
4573267652,node,40.7984999,29.4391651,daily,supermarket,BİM,,supermarket,,,,
4573304676,node,40.7986782,29.4400929,daily,restaurant,Konya Lezzetleri,restaurant,,,,,
4573327646,node,40.7984154,29.4400775,daily,supermarket,Mopaş,,supermarket,,,,
4579847810,node,40.7949227,29.4418199,daily,bank,İş Bankası,bank,,,,,
4579847811,node,40.7949209,29.4419035,daily,bank,Halkbank,bank,,,,,
4579847812,node,40.7949227,29.4419675,daily,bank,Ziraat Bankası,bank,,,,,
4579847813,node,40.7954198,29.441719,daily,supermarket,Carrefour Market,,supermarket,,,,
4579847814,node,40.7951008,29.442609,daily,cafe,,cafe,,,,,
4579910256,node,40.7953429,29.4339958,daily,atm,,atm,,,,,
4579910257,node,40.7953352,29.4340035,daily,atm,,atm,,,,,
4579910258,node,40.7953254,29.4340215,daily,atm,,atm,,,,,
4674803892,node,40.7626484,29.9299162,daily,cafe,45'lik Plak Kafe,cafe,,,,,
4675261646,node,40.6044162,29.9286898,daily,restaurant,Veysel Dayının Yeri,restaurant,,,,,
4678138490,node,40.695026,30.1279399,daily,restaurant,,restaurant,,,,,
4679475802,node,40.7561629,29.8363936,daily,bank,Akbank,bank,,,,,
4679475803,node,40.76292,29.99773,daily,bank,"Akbank, TR-Findikli",bank,,,,,
4679475804,node,40.79571,29.43134,daily,bank,Akbank,bank,,,,,
4679475805,node,40.71986,29.82082,daily,bank,Akbank,bank,,,,,
4679475832,node,40.69246,29.61629,daily,bank,Akbank,bank,,,,,
4679475833,node,40.76096,29.78812,daily,bank,Akbank,bank,,,,,
4679475834,node,40.7633607,29.9267716,daily,bank,Akbank,bank,,,,,
4680608591,node,40.7650021,29.8721019,health,clinic,kuruçeşme sağlık ocağı,clinic,,,,,
4686769590,node,40.7020857,30.2185301,daily,restaurant,Maja,restaurant,,,,,
4688956991,node,40.7653309,29.8717031,education,school,Kılıçarslan İlköğretim Okulu,school,,,,,
4858343028,node,40.6898493,29.8323489,daily,restaurant,Kokorec Adam,restaurant,,,,,
4898679821,node,40.7619314,29.9264994,daily,cafe,,cafe,,,,,
4933948522,node,40.6763978,30.1452339,daily,restaurant,Kartepe Manzara Restaurant,restaurant,,,,,
4934435244,node,40.7102291,30.1103443,transport,station,Büyük Derbent,,,,,station,station
4934449662,node,40.6992898,30.2445084,transport,station,Sapanca YHT,,,,,station,construction
4953620282,node,40.8241732,29.9207445,transport,bus_stop,Umuttepe Peronlar,,,,bus_stop,platform,
4964378521,node,40.7004903,30.1528938,daily,restaurant,Maşukiye Kuzu Çevirme,restaurant,,,,,
4976098140,node,40.8231443,29.9269178,health,pharmacy,Köroğlu Eczanesi,pharmacy,,,,,
5012064626,node,40.7463277,29.9478956,daily,bank,Akbank,bank,,,,,
5012064627,node,40.7463177,29.9488059,daily,bank,Türkiye İş Bankası,bank,,,,,
5012111459,node,40.7463615,29.9472102,daily,bank,TEB,bank,,,,,
5012111460,node,40.7463572,29.9470281,daily,bank,Türkiye Finans Kalkınma Bankası,bank,,,,,
5024176021,node,40.7904575,29.4161843,daily,convenience,bakkal,,convenience,,,,
5026068724,node,40.7934935,29.4239564,daily,convenience,,,convenience,,,,
5026068725,node,40.7952184,29.4230945,daily,supermarket,Mopaş,,supermarket,,,,
5078083423,node,40.7590915,29.9798858,daily,restaurant,midpoint,restaurant,,,,,
5080677821,node,40.7668726,29.9760581,daily,cafe,Starbucks,cafe,,,,,
5114012822,node,40.7909629,29.4245,daily,supermarket,CarrefourSA,,supermarket,,,,
5124114625,node,40.7912485,29.4244477,daily,supermarket,BİM,,supermarket,,,,
5124125421,node,40.7904447,29.4239518,daily,supermarket,BİM,,supermarket,,,,
5223613441,node,40.7635878,29.920528,daily,park,Kültür Tepesi,,,park,,,
5239091585,node,40.775369,29.8009022,daily,supermarket,BİM,,supermarket,,,,
5298415429,node,40.7954858,29.4335571,daily,cafe,pusula,cafe,,,,,
5298415430,node,40.7956213,29.4337761,daily,cafe,değirmen,cafe,,,,,
5298415431,node,40.7932828,29.433405,daily,bank,Yapı Kredi,bank,,,,,
5298415432,node,40.79323,29.4334415,daily,bank,İş Bankası,bank,,,,,
5298415433,node,40.793207,29.4333731,daily,bank,Garanti,bank,,,,,
5298415503,node,40.777666,29.4221279,daily,supermarket,,,supermarket,,,,
5298416355,node,40.7795859,29.4199756,daily,supermarket,,,supermarket,,,,
5298416365,node,40.7696594,29.4285368,daily,restaurant,Sahil Sofrası,restaurant,,,,,
5298416366,node,40.7696621,29.4283262,daily,restaurant,Sahil Restaurant,restaurant,,,,,
5298486072,node,40.7832658,29.4140596,daily,restaurant,,restaurant,,,,,
5298486077,node,40.783901,29.4142495,daily,restaurant,mert döner,restaurant,,,,,
5298487724,node,40.7828428,29.4123864,daily,atm,,atm,,,,,
5298487725,node,40.7828022,29.4124038,daily,atm,,atm,,,,,
5298487726,node,40.7828761,29.4123631,daily,atm,,atm,,,,,
5298487727,node,40.7827783,29.4129316,transport,bus_stop,,,,,bus_stop,platform,
5298487728,node,40.7834607,29.4136616,transport,bus_stop,,,,,bus_stop,platform,
5298487729,node,40.780545,29.4089773,transport,bus_stop,,,,,bus_stop,platform,
5298487734,node,40.7817309,29.4110879,daily,restaurant,karataş,restaurant,,,,,
5298487739,node,40.7818484,29.4108835,daily,supermarket,,,supermarket,,,,
5298487744,node,40.7811693,29.409747,daily,bank,,bank,,,,,
5298487751,node,40.7780322,29.4055025,transport,bus_stop,,,,,bus_stop,platform,
5298487760,node,40.7784377,29.40565,daily,bank,,bank,,,,,
5298487761,node,40.7785613,29.4054371,daily,convenience,peynirci baba,,convenience,,,,
5298487766,node,40.778621,29.4057213,daily,supermarket,,,supermarket,,,,
5298487767,node,40.7785253,29.40544,transport,bus_stop,,,,,bus_stop,platform,
5298487768,node,40.780149,29.4078488,transport,bus_stop,,,,,bus_stop,platform,
5298487769,node,40.7859768,29.4166165,transport,bus_stop,,,,,bus_stop,platform,
5298487869,node,40.789947,29.4217192,transport,bus_stop,,,,,bus_stop,platform,
5298487870,node,40.7899784,29.4219884,transport,bus_stop,,,,,bus_stop,platform,
5298487891,node,40.7900418,29.4151258,transport,bus_stop,,,,,bus_stop,platform,
5298487892,node,40.7897573,29.4149858,transport,bus_stop,,,,,bus_stop,platform,
5298487956,node,40.7964012,29.4324842,transport,bus_stop,,,,,bus_stop,platform,
5298509502,node,40.7974562,29.4400025,daily,restaurant,dostlar sofrası,restaurant,,,,,
5298509516,node,40.7972916,29.4378161,daily,cafe,simit sarayı,cafe,,,,,
5298509523,node,40.7971387,29.4344034,daily,convenience,,,convenience,,,,
5298509524,node,40.7972898,29.4342007,daily,bank,Garanti Bankası,bank,,,,,
5298509526,node,40.7977192,29.4325971,daily,cafe,,cafe,,,,,
5298509574,node,40.7996108,29.4305274,transport,bus_stop,Ak Çarşı,,,,bus_stop,platform,
5298509584,node,40.8010195,29.4330244,daily,bank,Garanti Bankası,bank,,,,,
5298509631,node,40.802433,29.4396913,transport,bus_stop,,,,,bus_stop,platform,
5298509632,node,40.8025408,29.4401116,transport,bus_stop,,,,,bus_stop,platform,
5298509641,node,40.8018109,29.4400384,daily,supermarket,,,supermarket,,,,
5298509650,node,40.7952884,29.4590383,transport,bus_stop,Gebze Otogar,,,,bus_stop,platform,
5308152921,node,40.6841181,29.9564688,daily,restaurant,,restaurant,,,,,
5325062422,node,40.7556238,30.0176279,daily,cafe,Meydan kıraathanesi,cafe,,,,,
5461778221,node,40.7642118,29.9343717,daily,bank,Kuveyt Türk,bank,,,,,
5615250976,node,40.7651523,29.9297042,daily,cafe,Down Cafe,cafe,,,,,
5622276183,node,40.7631627,29.924736,daily,marketplace,Kapanönü Kapalı Çarşı,marketplace,,,,,
5623746804,node,40.8235528,29.9263767,transport,bus_stop,,,,,bus_stop,platform,
5643216622,node,40.6972209,30.214088,daily,cafe,Uğurlu Dükkan,cafe,,,,,
5673856023,node,40.7656622,29.9345133,transport,bus_stop,,,,,bus_stop,platform,
5812678455,node,40.7180981,30.1566726,daily,restaurant,Kartepe Sukay Park,restaurant,,,,,
5812982453,node,40.68922,30.2338823,daily,restaurant,Gazibey,restaurant,,,,,
5820608154,node,40.693185,29.6106479,daily,restaurant,,restaurant,,,,,
5838831386,node,40.7633353,29.9330642,daily,cafe,Cafe de Luca,cafe,,,,,
5846661989,node,40.6978184,30.2118491,daily,restaurant,Adıbahçe Kırkpınar,restaurant,,,,,
5856758685,node,40.6752526,29.9722855,daily,restaurant,,restaurant,,,,,
5858680686,node,40.7021667,29.8422589,daily,supermarket,Kesmar Market,,supermarket,,,,
5924653535,node,40.8216906,29.9277311,daily,supermarket,Şok,,supermarket,,,,
5959796226,node,40.9503905,29.4062571,transport,bus_stop,İstanbul Park,,,,bus_stop,platform,
5959796227,node,40.9503307,29.4067966,transport,bus_stop,İstanbul Park,,,,bus_stop,platform,
5978058667,node,40.7071375,30.1070237,daily,cafe,İnci Cafe,cafe,,,,,
5995158106,node,40.7623403,29.9182716,transport,stop_position,Tren Garı,,,,,stop_position,tram_stop
5995161470,node,40.761409,29.9108904,transport,stop_position,Sekapark,,,,,stop_position,tram_stop
6178502220,node,40.7991404,29.4374107,daily,cafe,Antik Kafe,cafe,,,,,
6178502222,node,40.8000001,29.4374351,daily,restaurant,Mersin Tantuni,restaurant,,,,,
6180448825,node,40.786791,29.401292,transport,bus_stop,1519.Sokak,,,,bus_stop,platform,
6180448826,node,40.78671,29.401102,transport,bus_stop,1519.Sokak,,,,bus_stop,platform,
6180448827,node,40.7853302,29.4052454,transport,bus_stop,Makasbaşı,,,,bus_stop,platform,
6180448828,node,40.7856096,29.404896,transport,bus_stop,Makasbaşı,,,,bus_stop,platform,
6180448829,node,40.783563,29.410248,transport,bus_stop,Gebze İstasyonu,,,,bus_stop,platform,
6181447926,node,40.7991151,29.4365774,daily,convenience,Mopaş,,convenience,,,,
6186666295,node,40.8023576,29.4396395,daily,convenience,Uzun Büfe,,convenience,,,,
6188867879,node,40.8019126,29.4377997,daily,restaurant,Sait Çiğköfte,restaurant,,,,,
6188876314,node,40.8015156,29.4382092,daily,cafe,Yıldırım Kıraathanesi,cafe,,,,,
6188876331,node,40.8028088,29.4440564,daily,convenience,Park Büfe,,convenience,,,,
6190505887,node,40.8000005,29.4380754,daily,convenience,Kardeşler Market,,convenience,,,,
6191515908,node,40.6838056,29.925932,health,pharmacy,Beril Eczanesi,pharmacy,,,,,
6195584876,node,40.8024275,29.4401795,other,driving_school,GİRBAY Sürücü Kursu,driving_school,,,,,
6195584877,node,40.8024228,29.4401148,daily,bank,İş Bankası,bank,,,,,
6195584878,node,40.8023902,29.440084,daily,bank,Vakıf Bankası,bank,,,,,
6195586335,node,40.8025899,29.4408186,daily,convenience,,,convenience,,,,
6195586336,node,40.8026582,29.4410019,daily,supermarket,A101,,supermarket,,,,
6195586337,node,40.8026274,29.4411372,daily,bank,Ziraat Bankası,bank,,,,,
6195586338,node,40.8027935,29.4418875,daily,convenience,İMAMOĞLU,,convenience,,,,
6196162007,node,40.881018,29.402285,transport,bus_stop,Hudut Kapısı,,,,bus_stop,platform,
6196162008,node,40.881094,29.402158,transport,bus_stop,Hudut Kapısı,,,,bus_stop,platform,
6196162009,node,40.883612,29.405019,transport,bus_stop,7. Cadde,,,,bus_stop,platform,
6196162011,node,40.884375,29.407623,transport,bus_stop,2. Cadde,,,,bus_stop,platform,
6196162013,node,40.884542,29.407496,transport,bus_stop,2. Cadde,,,,bus_stop,platform,
6197154777,node,40.8536554,29.4022866,transport,bus_stop,Sevda Sokak,,,,bus_stop,platform,
6197154778,node,40.8518054,29.4044376,transport,bus_stop,Esenkaya Sokak,,,,bus_stop,platform,
6197154779,node,40.8500115,29.4042983,transport,bus_stop,Sarmaşık Sokak,,,,bus_stop,platform,
6197154780,node,40.8468565,29.404486,transport,bus_stop,Rezene Sokak,,,,bus_stop,platform,
6197154781,node,40.8434601,29.4046316,transport,bus_stop,Menekşe Sokak,,,,bus_stop,platform,
6197154782,node,40.8404848,29.4063274,transport,bus_stop,541.Sokak,,,,bus_stop,platform,
6197154783,node,40.8384258,29.4075586,transport,bus_stop,542.Sokak,,,,bus_stop,platform,
6197154784,node,40.8368904,29.4083126,transport,bus_stop,543.sokak,,,,bus_stop,platform,
6197165385,node,40.83608,29.408129,transport,bus_stop,Çayırova İtfaiye,,,,bus_stop,platform,
6197265387,node,40.836489,29.403573,transport,bus_stop,Kuştepe Mesire Alanı,,,,bus_stop,platform,
6197265388,node,40.837734,29.40134,transport,bus_stop,Çayırova Stadyumu,,,,bus_stop,platform,
6197279344,node,40.837468,29.401519,transport,bus_stop,Çayırova Stadyumu,,,,bus_stop,platform,
6197279345,node,40.8363089,29.4040173,transport,bus_stop,Kuştepe Mesire Alanı,,,,bus_stop,platform,
6197279346,node,40.835895,29.40804,transport,bus_stop,Çayırova İtfaiye,,,,bus_stop,platform,
6197279347,node,40.836996,29.408602,transport,bus_stop,543.sokak,,,,bus_stop,platform,
6197279348,node,40.838695,29.407863,transport,bus_stop,542. Sokak,,,,bus_stop,platform,
6197279349,node,40.840697,29.406587,transport,bus_stop,541.Sokak,,,,bus_stop,platform,
6197279350,node,40.8443339,29.4046599,transport,bus_stop,Menekşe Sokak,,,,bus_stop,platform,
6197279351,node,40.8471858,29.4048866,transport,bus_stop,Rezene Sokak,,,,bus_stop,platform,
6197279352,node,40.850046,29.404682,transport,bus_stop,Sarmaşık Sokak,,,,bus_stop,platform,
6197279353,node,40.852551,29.404311,transport,bus_stop,Esenkaya Sokak,,,,bus_stop,platform,
6197279354,node,40.854609,29.402064,transport,bus_stop,Sevda Sokak,,,,bus_stop,platform,
6326842323,node,40.6890391,30.2379774,daily,convenience,Migros Jet,,convenience,,,,
6336159224,node,40.7637905,29.9199298,daily,supermarket,Büfe,,supermarket,,,,
6405267287,node,40.7621845,29.810204,daily,restaurant,Glutensiz Bizim Mutfak,restaurant,,,,,
6419544686,node,40.7633748,29.9332666,daily,cafe,Sommario Coffee Company,cafe,,,,,
6430193586,node,40.7097721,29.9650788,daily,restaurant,,restaurant,,,,,
6432807496,node,40.7141564,29.9147604,daily,restaurant,The Latife,restaurant,,,,,
6445056331,node,40.7463954,29.9468359,health,clinic,42 Evler Aile Sağlığı Merkezi,clinic,,,,,
6445056332,node,40.782607,29.4068991,health,clinic,Abdi İpekçi Aile Sağlığı Merkezi,clinic,,,,,
6445056333,node,40.7172951,30.1135522,health,clinic,Acısu Nuran Turfanda Aile Sağlığı Merkezi,clinic,,,,,
6445715275,node,40.6913973,29.6178413,transport,bus_station,Karamürsel Terminali,bus_station,,,,station,
6445715280,node,40.6914689,29.6161707,health,pharmacy,Yıldız Eczanesi,pharmacy,,,,,
6445715693,node,40.6934195,29.6258701,education,kindergarten,Özel Karamürsel Beyaz Zambak Anaokulu,kindergarten,,,,,
6463570177,node,40.969258,29.4587487,daily,supermarket,Seç,,supermarket,,,,
6463570182,node,40.9692473,29.4584702,transport,bus_stop,Göçbeyli,,,,bus_stop,platform,
6463570183,node,40.9692734,29.4586308,transport,bus_stop,Göçbeyli,,,,bus_stop,platform,
6463594424,node,40.9802925,29.4589049,transport,bus_stop,Göçbeyli Merkez Camii,,,,bus_stop,platform,
6463594450,node,40.9768268,29.4588679,education,school,Göçbeyli İlkokulu,school,,,,,
6463594451,node,40.9766118,29.4589633,education,school,Göçbeyli Ortaokulu,school,,,,,
6463594456,node,40.9769379,29.4592715,transport,bus_stop,İlkokul,,,,bus_stop,platform,
6463594457,node,40.9768797,29.4593743,transport,bus_stop,İlkokul,,,,bus_stop,platform,
6483715797,node,40.7056536,29.860545,transport,bus_stop,,,,,bus_stop,platform,
6483736714,node,40.7057475,29.8631658,daily,restaurant,Erzurum Cağ Kebabı,restaurant,,,,,
6518033704,node,40.7674294,29.9740158,transport,stop_position,Yahya Kaptan,,,,,stop_position,tram_stop
6518033705,node,40.7674939,29.9740453,transport,stop_position,Yahya Kaptan,,,,,stop_position,tram_stop
6518059064,node,40.7758437,29.9757371,transport,stop_position,Otogar,,,,,stop_position,tram_stop
6518060199,node,40.7758552,29.9756416,transport,stop_position,Otogar,,,,,stop_position,tram_stop
6518087933,node,40.7677265,29.9668909,transport,stop_position,Yenişehir,,,,,stop_position,tram_stop
6518087945,node,40.767653,29.9668897,transport,stop_position,Yenişehir,,,,,stop_position,tram_stop
6518090930,node,40.7671589,29.9566883,transport,stop_position,Mehmet Ali Paşa,,,,,stop_position,tram_stop
6518090931,node,40.7671933,29.9566878,transport,stop_position,Mehmet Ali Paşa,,,,,stop_position,tram_stop
6518123996,node,40.7665078,29.9511958,transport,stop_position,Doğu Kışla,,,,,stop_position,tram_stop
6518123997,node,40.7665056,29.9511526,transport,stop_position,Doğu Kışla,,,,,stop_position,tram_stop
6520888549,node,40.7654493,29.9400844,transport,stop_position,Millî İrade Meydanı,,,,,stop_position,tram_stop
6520888550,node,40.7654428,29.9413631,transport,stop_position,Millî İrade Meydanı,,,,,stop_position,tram_stop
6520888557,node,40.7623366,29.9364769,transport,stop_position,Fuar,,,,,stop_position,tram_stop
6520888558,node,40.7623709,29.9364762,transport,stop_position,Fuar,,,,,stop_position,tram_stop
6520930719,node,40.7621668,29.9257878,transport,stop_position,Fevziye,,,,,stop_position,tram_stop
6520930720,node,40.7622383,29.9257819,transport,stop_position,Fevziye,,,,,stop_position,tram_stop
6520943448,node,40.7622283,29.9320745,transport,stop_position,Yeni Cuma,,,,,stop_position,tram_stop
6520943449,node,40.7622551,29.9320887,transport,stop_position,Yeni Cuma,,,,,stop_position,tram_stop
6532382548,node,40.6906767,30.2213871,daily,atm,Yapı Kredi,atm,,,,,
6532382558,node,40.6902358,30.2206729,daily,marketplace,Anatolia Bazaar,marketplace,,,,,
6532382560,node,40.6908329,30.2196071,transport,bus_stop,,,,,bus_stop,platform,
6532382562,node,40.6916136,30.2125828,daily,supermarket,BİM,,supermarket,,,,
6533695599,node,40.688712,30.2464064,daily,supermarket,A101,,supermarket,,,,
6533695600,node,40.6890796,30.2469775,daily,supermarket,Şok,,supermarket,,,,
6533695601,node,40.6890897,30.2466921,daily,supermarket,BİM,,supermarket,,,,
6567597926,node,40.8472029,29.4245583,daily,bank,Alternatif Bank,bank,,,,,
6593062709,node,40.7640373,29.9385751,daily,cafe,Elçin'in Renkli Mutfağı,cafe,,,,,
6739043745,node,40.7637291,29.8778097,daily,cafe,,cafe,,,,,
6743553791,node,40.727018,30.0695177,daily,cafe,Starbucks,cafe,,,,,
6762409888,node,40.7060263,29.8006704,education,kindergarten,Çilek Anaokulu kres,kindergarten,,,,,
6762491487,node,40.705427,29.8008939,education,kindergarten,Masal Anaokulu kreş,kindergarten,,,,,
6762551086,node,40.7061152,29.8016704,education,kindergarten,uğur böceğim Anaokulu,kindergarten,,,,,
6762551088,node,40.7083878,29.800176,education,school,Metin Çelik Fen ve Anadolu lisesi,school,,,,,
6764109168,node,40.7838682,29.4107806,transport,station,Gebze,,,,,station,station
6770541289,node,40.7041118,29.799807,daily,supermarket,Şok,,supermarket,,,,
6770541291,node,40.7037817,29.7959507,daily,supermarket,BİM,,supermarket,,,,
6770541294,node,40.7133172,29.8062648,daily,supermarket,Şok,,supermarket,,,,
6770563586,node,40.7047832,29.8003761,daily,cafe,Kahve Deryası,cafe,,,,,
6917943145,node,40.7954899,29.4592985,transport,bus_stop,Gebze Otogar,,,,bus_stop,platform,
7071694346,node,40.924894,29.42102,transport,bus_stop,Akfırat,,,,bus_stop,platform,
7071699700,node,40.898377,29.418334,transport,bus_stop,Akfırat Evleri,,,,bus_stop,platform,
7079214209,node,40.7629911,29.9352264,daily,cafe,Cumba Cafe,cafe,,,,,
7079214210,node,40.7629649,29.9350309,daily,restaurant,Yasin İbiş Döner,restaurant,,,,,
7170306673,node,40.7794124,29.5230929,daily,supermarket,Hakmar,,supermarket,,,,
7174599163,node,40.7858128,29.5544668,daily,convenience,Damarlı market,,convenience,,,,
7174689502,node,40.7850753,29.5593787,daily,convenience,,,convenience,,,,
7229187888,node,40.7807697,29.482683,daily,park,TEV Bayırı,,,park,,,
7229187901,node,40.7806399,29.4837926,education,school,Ana Giriş,school,,,,,
7262768961,node,40.786137,29.5407676,daily,supermarket,BİM,,supermarket,,,,
7331552485,node,40.7712251,29.4064231,daily,atm,,atm,,,,,
7331552692,node,40.7778764,29.4053752,daily,atm,,atm,,,,,
7400899443,node,40.7234291,29.795548,daily,supermarket,Rimal Market,,supermarket,,,,
7400899444,node,40.7237967,29.7955875,daily,supermarket,Durak Market,,supermarket,,,,
7567042665,node,40.7121764,29.9289516,health,hospital,Başiskele Semt Polikliniği,hospital,,,,,
7567066919,node,40.7143051,29.8064794,education,school,Gölcük Atatürk Anadolu Lisesi,school,,,,,
7567066920,node,40.7004709,29.8015012,education,school,,school,,,,,
7591548591,node,40.709578,29.903842,transport,bus_stop,,,,,bus_stop,platform,
7591548592,node,40.7097767,29.9039453,transport,bus_stop,,,,,bus_stop,platform,
7716752897,node,40.7839925,29.4107891,transport,stop_position,Gebze,,,,,stop_position,stop
7716752898,node,40.7838747,29.4107357,transport,stop_position,Gebze,,,,,stop_position,stop
7716752899,node,40.7837353,29.4106501,transport,stop_position,Gebze,,,,,stop_position,stop
7847558852,node,40.76138,29.910907,transport,stop_position,Sekapark,,,,,stop_position,tram_stop
7847558865,node,40.7623087,29.9182861,transport,stop_position,Tren Garı,,,,,stop_position,tram_stop
7915848895,node,40.774128,29.7559067,daily,supermarket,Şok,,supermarket,,,,
7919610460,node,40.7629391,29.9279102,daily,supermarket,Migros,,supermarket,,,,
7939801107,node,40.8069896,29.4426855,education,school,Kare Akademi Çocuk Kulübü,school,,,,,
7973901537,node,40.7838015,29.6178998,daily,restaurant,,restaurant,,,,,
8037947436,node,40.7667277,29.9659921,health,doctors,Uzm.Dr.Tuğba ARKAN,doctors,,,,,
8108917473,node,40.766787,30.0116043,daily,cafe,Ehlikeyf Bahçe Kafe,cafe,,,,,
8120607618,node,40.7512109,29.9487161,transport,bus_stop,,,,,bus_stop,platform,
8120607642,node,40.7550848,29.9471241,transport,bus_stop,,,,,bus_stop,platform,
8120607643,node,40.7561024,29.9463253,transport,bus_stop,,,,,bus_stop,platform,
8121556518,node,40.7623594,29.9550852,transport,bus_stop,42 Evler,,,,bus_stop,platform,
8147317557,node,40.7646412,29.9342298,daily,bank,Vakıf Katılım,bank,,,,,
8147317558,node,40.763845,29.9321111,daily,bank,Emlak Katılım,bank,,,,,
8173610982,node,40.7203691,29.7941461,health,pharmacy,Gaye Eczanesi,pharmacy,,,,,
8173610984,node,40.7229917,29.7956895,education,school,Donanma İlköğretim Okulu,school,,,,,
8231475915,node,40.7943758,29.5495618,daily,restaurant,Çetin Usta Toplu Yemek Hizmetleri,restaurant,,,,,
8231475975,node,40.7946416,29.5517442,transport,bus_stop,,,,,bus_stop,platform,
8296836066,node,40.7923925,29.5504201,transport,bus_stop,,,,,bus_stop,platform,
8296836114,node,40.7913245,29.5489745,daily,supermarket,Çetinler Market,,supermarket,,,,
8296836140,node,40.7912768,29.5488231,daily,restaurant,Adıyörem Çiğköfte,restaurant,,,,,
8296836141,node,40.7912365,29.5487118,daily,supermarket,Alibaba Çetin Market,,supermarket,,,,
8296836142,node,40.7914396,29.5487446,transport,bus_stop,,,,,bus_stop,platform,
8296836194,node,40.7913269,29.5476214,daily,supermarket,Şahin Market,,supermarket,,,,
8296836213,node,40.7910346,29.5472717,daily,restaurant,Bizim Zurna Dürüm,restaurant,,,,,
8296836220,node,40.7912236,29.547192,daily,restaurant,Onur Yemek,restaurant,,,,,
8297282440,node,40.7855158,29.5412091,transport,bus_stop,,,,,bus_stop,platform,
8439397543,node,40.7747196,29.9864354,transport,bus_stop,Akarca İş Merkezi,,,,bus_stop,platform,
8439598558,node,40.7735524,29.9857609,daily,supermarket,BİM,,supermarket,,,,
8439598567,node,40.7735128,29.9853054,daily,supermarket,A101,,supermarket,,,,
8439598568,node,40.7733571,29.9850866,daily,supermarket,Şok,,supermarket,,,,
8439998716,node,40.7734075,29.9851506,daily,supermarket,Organikgurmem,,supermarket,,,,
8500074448,node,40.6915602,29.4024414,daily,bank,İşBank Atm,bank,,,,,
8507705418,node,40.7743168,29.9715545,daily,restaurant,Ehlikeyf,restaurant,,,,,
8507705419,node,40.7732666,29.9707661,daily,restaurant,Yeşildağlar Et,restaurant,,,,,
8507709517,node,40.7741059,29.9714909,daily,restaurant,SushiCo,restaurant,,,,,
8507747817,node,40.7688036,29.9692134,education,school,Galatasaray Kocaeli Futbol Okulu,school,,,,,
8507762117,node,40.7718253,29.9691641,daily,restaurant,Zenka Baklava,restaurant,,,,,
8507764317,node,40.7709998,29.9694251,daily,restaurant,Levent Börek Kocaeli,restaurant,,,,,
8507767317,node,40.7700998,29.9691418,daily,restaurant,Zeugma Künefe İzmit,restaurant,,,,,
8507770119,node,40.7698457,29.9690653,daily,supermarket,Şok,,supermarket,,,,
8507924817,node,40.7679539,29.9685079,daily,supermarket,Kaptan Market,,supermarket,,,,
8507925617,node,40.7680237,29.9681889,daily,restaurant,Tarhun Ocakbaşı,restaurant,,,,,
8507932817,node,40.7708422,29.9688497,health,clinic,Aslı Zan Estetik,clinic,,,,,
8507942017,node,40.7671177,29.9758218,daily,restaurant,Happymoon’s Cafe,restaurant,,,,,
8507942917,node,40.7667097,29.9762329,daily,cafe,Mado,cafe,,,,,
8509094317,node,40.766102,29.9678905,other,prep_school,Yahya Kaptan Özde Fen Bilimleri,prep_school,,,,,
8509095817,node,40.764525,29.9653811,health,pharmacy,Nar Eczanesi,pharmacy,,,,,
8509100817,node,40.7635854,29.9651297,daily,restaurant,Mehmet Et Ve Ciğer,restaurant,,,,,
8509103117,node,40.7644659,29.9653542,health,pharmacy,Eczane Esin,pharmacy,,,,,
8509104017,node,40.7640011,29.9649962,health,pharmacy,Atlas Eczanesi,pharmacy,,,,,
8509104617,node,40.7641179,29.9655066,daily,atm,Akbank,atm,,,,,
8509109119,node,40.7632418,29.9633913,daily,restaurant,Serpmeköy Trabzon Köy Kahvaltısı,restaurant,,,,,
8509113618,node,40.7633851,29.9621239,daily,restaurant,Maçka İşkembe,restaurant,,,,,
8509116117,node,40.7634833,29.9622088,health,pharmacy,Kübra Eczanesi,pharmacy,,,,,
8509117217,node,40.763664,29.9614862,health,clinic,REFLEKS AKADEMİ-REFLEKSOLOJİ MERKEZİ,clinic,,,,,
8509117218,node,40.7641122,29.9595937,daily,restaurant,Kare Restaurant,restaurant,,,,,
8509125717,node,40.7636739,29.9590682,daily,restaurant,Tarif Cağ Kebap,restaurant,,,,,
8509131317,node,40.7632776,29.9600633,daily,restaurant,Yağız Et & Kebap Pide Lahmacun İşkembe,restaurant,,,,,
8509142417,node,40.7664244,29.9659599,health,hospital,ÖZEL DENGE TIP MERKEZİ,hospital,,,,,
8510611227,node,40.7674882,29.9667223,daily,bank,Ziraat Bankası,bank,,,,,
8510621717,node,40.7675845,29.9663369,health,pharmacy,Deniz Eczanesi,pharmacy,,,,,
8510622119,node,40.7675656,29.9661366,daily,bank,Vakıfbank,bank,,,,,
8510755920,node,40.7679476,29.9635518,daily,restaurant,Kocaeli Köfte Lahmacun ve Pide Salonu,restaurant,,,,,
8510757817,node,40.7675262,29.965561,daily,supermarket,Çağrı Market,,supermarket,,,,
8510763717,node,40.7679226,29.9655718,daily,supermarket,A101,,supermarket,,,,
8510766538,node,40.7679467,29.9638457,daily,restaurant,Erim Çiğköfte & Börek Salonu,restaurant,,,,,
8510770917,node,40.7679237,29.9653602,daily,supermarket,Hakmar,,supermarket,,,,
8510776417,node,40.7679261,29.9644021,daily,restaurant,Anteplioğlu Hertat,restaurant,,,,,
8510785117,node,40.7679659,29.9632528,daily,restaurant,Ciğerci Bahattin Kocaeli,restaurant,,,,,
8510785132,node,40.7676719,29.9626153,daily,convenience,Yenişehir Tobacco store,,convenience,,,,
8510791917,node,40.7680451,29.9632332,education,school,İzmit Yenişehir Final Özel Öğretim Kursu,school,,,,,
8512122422,node,40.7677607,29.960625,health,pharmacy,Etem Eczanesi,pharmacy,,,,,
8512125126,node,40.767573,29.9616359,daily,restaurant,Kavuret Kebap Ciğer Salonu,restaurant,,,,,
8512125821,node,40.7674401,29.9608144,education,school,Özel İzmit Birey Anadolu Lisesi,school,,,,,
8512125922,node,40.7677928,29.9608162,daily,restaurant,tekbir lahmacun ve pide,restaurant,,,,,
8512135718,node,40.7672405,29.9591026,daily,atm,,atm,,,,,
8512135719,node,40.7671617,29.9588795,daily,restaurant,BEYHAN KEBAP LAHMACUN PIDE KÖFTE,restaurant,,,,,
8512149417,node,40.767177,29.9586304,daily,restaurant,Nur Pastanesi,restaurant,,,,,
8512149418,node,40.7669754,29.9584265,daily,restaurant,Fatih Usta,restaurant,,,,,
8512152017,node,40.7671611,29.9583491,daily,restaurant,Çiğköfteci Sait,restaurant,,,,,
8512152019,node,40.7670391,29.9573,daily,cafe,Başak Kafeterya,cafe,,,,,
8512164717,node,40.7670594,29.9551105,health,clinic,Sağlıklı Yaşam Merkezi,clinic,,,,,
8512165517,node,40.7668685,29.9553843,health,clinic,Ketem (Kanser Erken Teşhis Ve Tanı Merkezi),clinic,,,,,
8512173418,node,40.767358,29.9528048,health,pharmacy,Lerzan Eczanesi,pharmacy,,,,,
8512176817,node,40.7675046,29.9531105,health,clinic,Cankat Tıp Merkezi,clinic,,,,,
8512178040,node,40.7673108,29.9523137,daily,convenience,Orka Gross,,convenience,,,,
8512179417,node,40.767367,29.9528805,daily,supermarket,BİM,,supermarket,,,,
8512180417,node,40.7673661,29.9526957,health,pharmacy,M. Ali Paşa Eczanesi,pharmacy,,,,,
8512184317,node,40.7673098,29.9521245,daily,convenience,Peynirci Baba,,convenience,,,,
8512190317,node,40.7669931,29.9523414,daily,restaurant,Paşa Et Izgara,restaurant,,,,,
8512193018,node,40.7673914,29.9518417,daily,restaurant,"Özoğlu Pastanesi, mehmet ali paşa",restaurant,,,,,
8512193019,node,40.7674655,29.9518173,daily,atm,TEB,atm,,,,,
8512196117,node,40.7681777,29.9517318,health,pharmacy,Emir Yusuf Eczanesi,pharmacy,,,,,
8512197417,node,40.7682117,29.9518336,daily,restaurant,Karadeniz Pide Salonu,restaurant,,,,,
8512206718,node,40.7685976,29.9519017,health,hospital,Mehmet Ali Paşa Aile Sağlığı Merkezi,hospital,,,,,
8512211025,node,40.7697519,29.9515291,daily,convenience,İhsan Kuruyemiş,,convenience,,,,
8512760418,node,40.7673467,29.951555,daily,restaurant,Kısmet Lahmacun Salonu,restaurant,,,,,
8512766118,node,40.7676351,29.9480604,daily,supermarket,Kar-pa Hiper Market,,supermarket,,,,
8512766417,node,40.7718434,29.950705,health,pharmacy,Aydınoğlu Eczanesi,pharmacy,,,,,
8512767819,node,40.767296,29.9507312,daily,restaurant,HERTAT TATLI PASTA KURUYEMİŞ,restaurant,,,,,
8512769317,node,40.7673072,29.9510639,daily,supermarket,A101,,supermarket,,,,
8512769319,node,40.7673062,29.9503862,daily,restaurant,ÇİĞKÖFTECİ SAİT USTA,restaurant,,,,,
8512770520,node,40.7676956,29.9469419,health,pharmacy,Merve Eczanesi,pharmacy,,,,,
8512770521,node,40.7680473,29.9469019,health,pharmacy,Kadıköy Eczanesi,pharmacy,,,,,
8512779617,node,40.767495,29.9485209,daily,convenience,Bağdat kuruyemiş&Aktar&Büfe,,convenience,,,,
8512779618,node,40.7676164,29.9482083,daily,supermarket,Hakmar,,supermarket,,,,
8512779718,node,40.7678115,29.9474243,daily,convenience,Marmara Market,,convenience,,,,
8512779720,node,40.7677368,29.9467792,daily,supermarket,Şok,,supermarket,,,,
8512781918,node,40.7676497,29.9477379,daily,convenience,üzmezler kitap kırtasiye,,convenience,,,,
8512782322,node,40.768175,29.9456316,daily,convenience,Şifa Baharat,,convenience,,,,
8512784317,node,40.7676912,29.947523,daily,restaurant,Yenigün Lokantası,restaurant,,,,,
8512787421,node,40.7681931,29.9455318,daily,convenience,Nur Öztürk Gıda,,convenience,,,,
8512795517,node,40.7682878,29.9451663,daily,supermarket,BİM,,supermarket,,,,
8512935519,node,40.7684582,29.9423858,daily,restaurant,Yilmaz Kebap,restaurant,,,,,
8512935521,node,40.7685618,29.9424641,daily,supermarket,A101,,supermarket,,,,
8512935619,node,40.7685807,29.9426162,daily,supermarket,BİM,,supermarket,,,,
8512935921,node,40.7685672,29.9437074,daily,convenience,Özmar Gıda,,convenience,,,,
8512942487,node,40.7682015,29.9446706,daily,restaurant,Tarihi İzmit Börekçisi,restaurant,,,,,
8512942497,node,40.7683865,29.943871,daily,convenience,Karagözler Tarım Ve Gıda Ürünleri,,convenience,,,,
8512943722,node,40.7682345,29.9443122,education,school,Çes Özel Çocuk Eğitimi Sağlığı,school,,,,,
8512949712,node,40.7682558,29.9441509,daily,restaurant,Albeni Lokantası,restaurant,,,,,
8512951455,node,40.7684445,29.9434104,daily,convenience,Örnek Gıda,,convenience,,,,
8512962917,node,40.7686078,29.9434819,daily,convenience,TÜGVA -KARTEPE BELEDİYESİ,,convenience,,,,
8512970220,node,40.7684976,29.9411364,health,pharmacy,Santral Eczanesi,pharmacy,,,,,
8513013117,node,40.7624392,29.922351,education,school,Birey Dershanesi,school,,,,,
8515189518,node,40.7626262,29.9239488,daily,bank,Türkiye İş Bankası,bank,,,,,
8515200120,node,40.7629427,29.9242726,health,pharmacy,Eczane İrem,pharmacy,,,,,
8515213518,node,40.7632194,29.9259276,daily,restaurant,Cadde Katık Döner,restaurant,,,,,
8515214817,node,40.7631378,29.9253258,daily,restaurant,Bursa Kent İskender,restaurant,,,,,
8515224017,node,40.763351,29.9248157,health,pharmacy,Alyürük Eczanesi,pharmacy,,,,,
8515224018,node,40.7630609,29.9265165,daily,cafe,Ümit Usta İzmit Şubesi,cafe,,,,,
8515235917,node,40.7631456,29.9279227,daily,cafe,Lamazi Cafe,cafe,,,,,
8515235924,node,40.7637414,29.9290497,daily,supermarket,BİM,,supermarket,,,,
8515236417,node,40.7632659,29.9279635,daily,bank,Halkbank,bank,,,,,
8515259421,node,40.7635916,29.9298729,daily,bank,Türkiye Finans,bank,,,,,
8515261220,node,40.7637663,29.9292025,health,pharmacy,Eczane Feyza Nur,pharmacy,,,,,
8515261224,node,40.7636557,29.930408,health,pharmacy,Yeni Cuma Eczanesi,pharmacy,,,,,
8515272421,node,40.7637489,29.9314706,daily,bank,Yapı Kredi,bank,,,,,
8524977717,node,40.7080618,29.9611467,daily,supermarket,Hakmar,,supermarket,,,,
8551658186,node,40.723382,29.7950468,transport,bus_stop,Aşiyan Durağı,,,,bus_stop,platform,
8567755467,node,40.7242567,29.7947117,daily,supermarket,A101,,supermarket,,,,
8568158011,node,40.721995,29.795019,daily,supermarket,A101,,supermarket,,,,
8568244783,node,40.724647,29.7939493,daily,cafe,Kahveland,cafe,,,,,
8568244789,node,40.7224816,29.7925116,daily,restaurant,Barakaa Cafe,restaurant,,,,,
8568244791,node,40.721916,29.7919593,daily,cafe,Komagene Çiğköfte,cafe,,,,,
8568279638,node,40.7210825,29.788123,daily,supermarket,BİM,,supermarket,,,,
8568279639,node,40.7208822,29.7879614,daily,supermarket,Şok,,supermarket,,,,
8568279655,node,40.7216742,29.7938038,daily,supermarket,Ekomini,,supermarket,,,,
8614575907,node,40.7040208,29.8014547,daily,restaurant,İstanbul Çiğköfte 41,restaurant,,,,,
8622567667,node,40.7236625,29.7978222,daily,supermarket,Şok,,supermarket,,,,
8687571262,node,40.7634377,29.9357135,daily,cafe,Elçin'in Renkli Mutfağı,cafe,,,,,
8688205250,node,40.720014,29.7942222,health,clinic,Yüzbaşılar Aile Polikliniği,clinic,,,,,
8898183693,node,40.733131,30.0162465,daily,supermarket,A101,,supermarket,,,,
8898207348,node,40.7328515,30.0160845,daily,restaurant,Balıkçı Müco,restaurant,,,,,
8898219517,node,40.7331229,30.0158683,daily,supermarket,BİM,,supermarket,,,,
8898222484,node,40.7328519,30.015532,daily,convenience,Serhat Market,,convenience,,,,
8898259678,node,40.7422742,30.0215583,daily,supermarket,Şok,,supermarket,,,,
8898286886,node,40.7429195,30.0189182,daily,supermarket,Kartepe Gross,,supermarket,,,,
8898290953,node,40.7423253,30.0216405,daily,atm,Ziraat Bankası,atm,,,,,
8898293721,node,40.739356,30.0168244,daily,supermarket,BİM,,supermarket,,,,
8898300969,node,40.7421062,30.0257539,daily,atm,Vakıfbank,atm,,,,,
9069441138,node,40.7714051,29.9684632,transport,bus_stop,Karayolu Cad.,,,,bus_stop,platform,
9086099679,node,40.7605838,29.8148868,health,pharmacy,Deva Eczanesi,pharmacy,,,,,
9113079421,node,40.6640718,30.2176264,daily,restaurant,Balıklı Göl,restaurant,,,,,
9132014054,node,40.7170978,29.817702,daily,supermarket,BİM,,supermarket,,,,
9143707563,node,40.7705068,29.9480515,daily,bank,Garanti Bankası,bank,,,,,
9143707564,node,40.7706641,29.9477156,daily,bank,Halkbank,bank,,,,,
9197099488,node,40.7966373,29.4321419,health,pharmacy,Arı Eczanesi,pharmacy,,,,,
9280280558,node,40.7725212,29.9508929,daily,bank,Akbank,bank,,,,,
9280307527,node,40.771754,29.9487717,daily,supermarket,UYSAL MARKET,,supermarket,,,,
9388386640,node,40.7800623,29.9885405,transport,bus_stop,Fevzi Çakmak Camii,,,,bus_stop,platform,
9388497454,node,40.7744319,29.9871453,daily,supermarket,MOPAŞ,,supermarket,,,,
9388497456,node,40.7746369,29.9875101,daily,convenience,Ataman Gıda,,convenience,,,,
9388497457,node,40.774515,29.9875407,daily,restaurant,Nisa Pide&Lahmacun,restaurant,,,,,
9388497458,node,40.774596,29.9874422,health,pharmacy,Atun Eczanesi,pharmacy,,,,,
9388497466,node,40.7725479,29.9814637,daily,convenience,File,,convenience,,,,
9388497474,node,40.7740093,29.9799914,daily,supermarket,Migros,,supermarket,,,,
9388497574,node,40.7746603,29.9800284,daily,supermarket,BİM,,supermarket,,,,
9388497575,node,40.7745338,29.9799353,other,language_school,Easyspeak İngilizce Dil Okulu,language_school,,,,,
9388497586,node,40.7742254,29.9797887,daily,restaurant,Çorba Keyfi,restaurant,,,,,
9388497604,node,40.7739341,29.978427,daily,supermarket,Tarım Kredi Kooperatifi,,supermarket,,,,
9388497608,node,40.7726627,29.9801652,daily,restaurant,Hataylı Nihat Usta,restaurant,,,,,
9388539634,node,40.7757995,29.9779805,daily,restaurant,Yakamoz Tantuni,restaurant,,,,,
9388539635,node,40.7758011,29.978129,daily,restaurant,Tatlıses Çiğköfte,restaurant,,,,,
9388539640,node,40.7758718,29.9784794,daily,convenience,Damla Tekel Shop,,convenience,,,,
9388539642,node,40.7758603,29.9784319,daily,restaurant,Nus-Et Katık,restaurant,,,,,
9388539653,node,40.7757174,29.977635,daily,restaurant,Çeto Kebap,restaurant,,,,,
9388539654,node,40.7756634,29.9774014,daily,restaurant,Yöre Kebap,restaurant,,,,,
9396850168,node,40.7747615,29.9883914,transport,bus_stop,Akarca Parkı,,,,bus_stop,platform,
9398023734,node,40.7746246,29.9870558,daily,atm,QNB Finansbank,atm,,,,,
9398023735,node,40.7745937,29.9871143,daily,atm,Halkbank,atm,,,,,
9398023736,node,40.7746352,29.987161,daily,atm,Ziraat Bankası,atm,,,,,
9398023737,node,40.7745152,29.9872295,daily,atm,Türkiye İş Bankası,atm,,,,,
9398023738,node,40.7744908,29.9872705,daily,atm,Garanti Bankası,atm,,,,,
9400403714,node,40.7724849,29.9794556,daily,cafe,Miles Coffee,cafe,,,,,
9408174417,node,40.692738,29.6158987,health,pharmacy,,pharmacy,,,,,
9408290917,node,40.6891968,29.5743192,daily,restaurant,Coffee Chefs,restaurant,,,,,
9410232789,node,40.7745658,29.9871534,daily,atm,Vakıfbank,atm,,,,,
9410232790,node,40.7745023,29.987249,daily,atm,Akbank,atm,,,,,
9410451117,node,40.6877841,29.580343,daily,restaurant,Köfteci Nurettin,restaurant,,,,,
9411256166,node,40.775439,29.9844179,transport,bus_stop,Alikahya Cumhuriyet Muhtarlığı,,,,bus_stop,platform,
9411256167,node,40.7754399,29.9845426,transport,bus_stop,Alikahya Cumhuriyet Muhtarlığı,,,,bus_stop,platform,
9411256168,node,40.7780739,29.9845382,transport,bus_stop,Akasya Sokak,,,,bus_stop,platform,
9411256169,node,40.7771267,29.982165,transport,bus_stop,Muallim Naci,,,,bus_stop,platform,
9411256170,node,40.7748525,29.9907268,transport,bus_stop,Akarca Postane,,,,bus_stop,platform,
9411256171,node,40.7740502,29.9908621,transport,bus_stop,Ahmet Taner Kışlalı,,,,bus_stop,platform,
9411256173,node,40.7726761,29.9817545,transport,bus_stop,Sultan Murat Caddesi,,,,bus_stop,platform,
9411256175,node,40.7746407,29.9802788,transport,bus_stop,Yuvam Köprü Köşe,,,,bus_stop,platform,
9411256176,node,40.7757137,29.9780204,transport,bus_stop,Horosan,,,,bus_stop,platform,
9411256177,node,40.7750209,29.9752623,transport,bus_stop,Otogar Doğu Girişi,,,,bus_stop,platform,
9411256178,node,40.7752972,29.9719553,transport,bus_stop,İzmit Otogar 2,,,,bus_stop,platform,
9411256179,node,40.7684442,29.9675604,transport,bus_stop,Mahmud Esat Coşan Cami,,,,bus_stop,platform,
9411256180,node,40.7625796,29.9588749,transport,bus_stop,Akçakocabey,,,,bus_stop,platform,
9411256181,node,40.7627123,29.9561119,transport,bus_stop,Kandıra Sapağı,,,,bus_stop,platform,
9411256182,node,40.762808,29.9484029,transport,bus_stop,Real,,,,bus_stop,platform,
9411256183,node,40.7627396,29.9463993,transport,bus_stop,Valilik,,,,bus_stop,platform,
9411256184,node,40.7626659,29.9437469,transport,bus_stop,Milli İrade Meydanı K.Yanyol,,,,bus_stop,platform,
9411256186,node,40.7618355,29.930729,transport,bus_stop,Kefalet Esnaf,,,,bus_stop,platform,
9411256187,node,40.7759585,29.9863764,transport,bus_stop,8.Ada,,,,bus_stop,platform,
9411256188,node,40.7764921,29.98974,transport,bus_stop,Menekşe,,,,bus_stop,platform,
9411256189,node,40.7778987,29.9911656,transport,bus_stop,Akarca B 1 Blok,,,,bus_stop,platform,
9411256190,node,40.7788416,29.9920711,transport,bus_stop,Çitlenbik,,,,bus_stop,platform,
9411256191,node,40.7794503,29.991642,transport,bus_stop,Akarca Mesire Alanı,,,,bus_stop,platform,
9411256192,node,40.7798864,29.9871557,transport,bus_stop,Akarca 2,,,,bus_stop,platform,
9411256193,node,40.7797944,29.9853332,transport,bus_stop,Akarca 1,,,,bus_stop,platform,
9411256194,node,40.781239,29.9859725,transport,bus_stop,Karanfil Sokak,,,,bus_stop,platform,
9411256195,node,40.7826053,29.9892848,transport,bus_stop,Çocuk Hastanesi,,,,bus_stop,stop_position,
9411325641,node,40.7635778,29.9133741,transport,bus_stop,Seka Camii,,,,bus_stop,platform,
9411325655,node,40.7622892,29.945635,transport,bus_stop,Valilik D-100,,,,bus_stop,platform,
9411325656,node,40.762236,29.9573729,transport,bus_stop,Kandıra Sapağı 1,,,,bus_stop,platform,
9411325657,node,40.7628192,29.9668296,transport,bus_stop,Kınalı Asker 1,,,,bus_stop,platform,
9411325658,node,40.7684973,29.9679374,transport,bus_stop,Yahya Kaptan Köprüsü,,,,bus_stop,platform,
9411325659,node,40.7756523,29.9754898,transport,bus_stop,Aktarma Durağı,,,,bus_stop,platform,
9411325660,node,40.7752927,29.9765243,transport,bus_stop,Akarca Secde Camii,,,,bus_stop,platform,
9411325661,node,40.7748932,29.9800384,transport,bus_stop,Yuvam Köprü Köşe,,,,bus_stop,platform,
9411325662,node,40.7736506,29.9806984,transport,bus_stop,Fener Sokak,,,,bus_stop,platform,
9411325667,node,40.7722438,29.9820368,transport,bus_stop,Sultan Murat Caddesi,,,,bus_stop,platform,
9411325669,node,40.7723263,29.9899683,transport,bus_stop,Akarca B-1,,,,bus_stop,platform,
9411325671,node,40.7741284,29.9909518,transport,bus_stop,Ahmet Taner Kışlalı,,,,bus_stop,platform,
9411325672,node,40.774966,29.9910094,transport,bus_stop,Akarca Postane,,,,bus_stop,platform,
9411325673,node,40.7750179,29.9883313,transport,bus_stop,Akarca Parkı,,,,bus_stop,platform,
9411325674,node,40.7749032,29.9857365,transport,bus_stop,Akarca İş Merkezi,,,,bus_stop,platform,
9411325675,node,40.7751876,29.9847282,transport,bus_stop,Akarca Sağlık Ocağı,,,,bus_stop,platform,
9411325677,node,40.7772207,29.9822372,transport,bus_stop,Muallim Naci,,,,bus_stop,platform,
9411325679,node,40.7776989,29.9820415,transport,bus_stop,Mustafa Eryiğit Sokak,,,,bus_stop,platform,
9411325681,node,40.7780056,29.9844981,transport,bus_stop,Akasya Sokak,,,,bus_stop,platform,
9411325683,node,40.7767096,29.9841174,transport,bus_stop,Koşar Sokak,,,,bus_stop,platform,
9411325685,node,40.7757906,29.9861001,transport,bus_stop,8.Ada,,,,bus_stop,platform,
9411325687,node,40.7759262,29.9883134,transport,bus_stop,Milenium,,,,bus_stop,platform,
9411325689,node,40.7764603,29.9898158,transport,bus_stop,Menekşe,,,,bus_stop,platform,
9411325691,node,40.7778733,29.9912221,transport,bus_stop,Akarca B 1 Blok,,,,bus_stop,platform,
9411325693,node,40.778852,29.9922402,transport,bus_stop,Çitlenbik,,,,bus_stop,platform,
9411325694,node,40.7795126,29.9916475,transport,bus_stop,Akarca Mesire Alanı,,,,bus_stop,platform,
9411325697,node,40.7799595,29.9871539,transport,bus_stop,Akarca 5,,,,bus_stop,platform,
9411325699,node,40.7798673,29.9853261,transport,bus_stop,Akarca 4,,,,bus_stop,platform,
9411325701,node,40.7811572,29.9859949,transport,bus_stop,Karanfil Sokak,,,,bus_stop,platform,
9411325702,node,40.7829085,29.9891465,transport,bus_stop,Çocuk Hastanesi,,,,bus_stop,platform,
9419114859,node,40.7658893,29.9678636,daily,restaurant,Özay ASPAVA,restaurant,,,,,
9419114878,node,40.7673121,29.9679783,daily,supermarket,Şok,,supermarket,,,,
9420509625,node,40.7627448,29.8868718,transport,stop_position,Plajyolu,,,,,stop_position,tram_stop
9420509626,node,40.7627146,29.8868736,transport,stop_position,Plajyolu,,,,,stop_position,tram_stop
9420509627,node,40.7623171,29.892226,transport,stop_position,Eğitim Kampüsü,,,,,stop_position,tram_stop
9420509628,node,40.7622766,29.8922174,transport,stop_position,Eğitim Kampüsü,,,,,stop_position,tram_stop
9420509629,node,40.7617824,29.8969971,transport,stop_position,Kongre Merkezi,,,,,stop_position,tram_stop
9420509630,node,40.761753,29.8969932,transport,stop_position,Kongre Merkezi,,,,,stop_position,tram_stop
9420509631,node,40.7612077,29.9017706,transport,stop_position,Seka Devlet Hatanesi,,,,,stop_position,tram_stop
9420509632,node,40.7611839,29.9017671,transport,stop_position,Seka Devlet Hatanesi,,,,,stop_position,tram_stop
9425440129,node,40.7707071,30.0052313,transport,bus_stop,Fatih Sultan Mehmet Bulvarı,,,,bus_stop,platform,
9425440130,node,40.7691157,30.0044808,transport,bus_stop,Kanalboyu Köprü,,,,bus_stop,platform,
9425440131,node,40.7676387,30.0056263,transport,bus_stop,Şehit Yüksel Dinç,,,,bus_stop,platform,
9425440132,node,40.7673969,30.0071501,transport,bus_stop,833 Ada,,,,bus_stop,platform,
9425440133,node,40.7667881,30.0103753,transport,bus_stop,832 Ada,,,,bus_stop,platform,
9425440134,node,40.7663262,30.012848,transport,bus_stop,831 Ada,,,,bus_stop,platform,
9425440135,node,40.7672249,30.0134859,transport,bus_stop,Kanalboyu Camii,,,,bus_stop,platform,
9425440136,node,40.7713496,29.9838388,transport,bus_stop,Sultan Murat Caddesi 1,,,,bus_stop,platform,
9425440137,node,40.7744653,29.9764507,transport,bus_stop,Akarca Caddesi,,,,bus_stop,platform,
9425440138,node,40.7726664,29.9777487,transport,bus_stop,İshak Paşa Caddesi,,,,bus_stop,platform,
9425440139,node,40.7685387,29.9757788,transport,bus_stop,24 Kasım A.M.L,,,,bus_stop,platform,
9425440199,node,40.7652208,29.977081,transport,bus_stop,Süleyman Demirel Kültür Merkezi,,,,bus_stop,platform,
9425440200,node,40.7632952,29.9769894,transport,bus_stop,Akasyalar Caddesi,,,,bus_stop,platform,
9425440201,node,40.7631917,29.9761098,transport,bus_stop,İlkadım,,,,bus_stop,platform,
9425440202,node,40.7635556,29.973889,transport,bus_stop,Atılım Lisesi,,,,bus_stop,platform,
9425440203,node,40.76339,29.9717916,transport,bus_stop,Yahya Kaptan 5,,,,bus_stop,platform,
9425440204,node,40.7648069,29.9703402,transport,bus_stop,Yahya Kaptan 4,,,,bus_stop,platform,
9425440213,node,40.7669668,29.9712604,transport,bus_stop,Gökkuşağı Sokak,,,,bus_stop,platform,
9425440214,node,40.7677041,29.9706803,transport,bus_stop,Yahya Kaptan 2,,,,bus_stop,platform,
9425440215,node,40.7677815,29.9689587,transport,bus_stop,Necip Fazıl Caddesi,,,,bus_stop,platform,
9425440216,node,40.7764141,29.9683497,transport,bus_stop,Feyzullah İzmidi Caddesi,,,,bus_stop,platform,
9425442817,node,40.7778664,29.967257,transport,bus_stop,Seymen,,,,bus_stop,platform,
9439262817,node,40.7058957,29.8473183,daily,cafe,,cafe,,,,,
9439262818,node,40.6894631,29.6067827,health,pharmacy,,pharmacy,,,,,
9439262819,node,40.6905526,29.6050991,daily,atm,,atm,,,,,
9439262917,node,40.7060486,29.8474451,health,clinic,,clinic,,,,,
9439262918,node,40.6904983,29.6051047,daily,atm,,atm,,,,,
9439262919,node,40.6905238,29.6051017,daily,atm,,atm,,,,,
9439262920,node,40.6904265,29.6051077,daily,atm,,atm,,,,,
9439263017,node,40.6904585,29.6051048,daily,atm,,atm,,,,,
9444236812,node,40.7811467,29.9863812,daily,convenience,Bekiroğlu Market,,convenience,,,,
9444493131,node,40.776126,29.9910681,daily,convenience,Yuvam Huzur Mini Market,,convenience,,,,
9456369707,node,40.7666083,29.9763519,daily,cafe,Kahve Dünyası,cafe,,,,,
9456369708,node,40.7667948,29.976144,daily,cafe,Alaçatı Muhallebicisi,cafe,,,,,
9456369734,node,40.7665523,29.9746416,daily,cafe,İREM Cafe,cafe,,,,,
9456768407,node,40.770572,29.9757297,daily,supermarket,CarrefourSA,,supermarket,,,,
9461300529,node,40.763471,29.972022,daily,convenience,Gross Market,,convenience,,,,
9461641017,node,40.7640492,29.8752223,transport,bus_stop,Kuruçeşme D100,,,,bus_stop,platform,
9461641100,node,40.7642378,29.8893354,education,school,Nuh Çimento Mesleki ve Teknik Anadolu Lisesi,school,,,,,
9461641101,node,40.764082,29.8901275,education,school,İzmit Lisesi,school,,,,,
9467039379,node,40.7636131,29.9722748,daily,restaurant,Ocakbaşı Meymenet,restaurant,,,,,
9467039381,node,40.7636662,29.9716923,health,pharmacy,Eczane Eren,pharmacy,,,,,
9467039382,node,40.7637032,29.9717104,daily,restaurant,Göçmen Börekçisi,restaurant,,,,,
9467039385,node,40.7640901,29.97194,daily,atm,Türkiye İş Bankası,atm,,,,,
9467039386,node,40.7640805,29.9719708,daily,atm,Yapı Kredi,atm,,,,,
9467039387,node,40.7640531,29.9720324,daily,atm,Ziraat Bankası,atm,,,,,
9467039388,node,40.7640309,29.9720835,daily,atm,Garanti Bankası,atm,,,,,
9467039389,node,40.7640201,29.9721121,daily,atm,Akbank,atm,,,,,
9467039390,node,40.7640053,29.9721579,daily,atm,QNB Finansbank,atm,,,,,
9467039391,node,40.7639985,29.9721797,daily,atm,TEB,atm,,,,,
9467039392,node,40.7639826,29.9722278,daily,atm,Halkbank,atm,,,,,
9468408547,node,40.7592814,29.9789825,daily,cafe,Starbucks,cafe,,,,,
9469213857,node,40.7599357,29.9753429,daily,supermarket,CarrefourSA,,supermarket,,,,
9487913396,node,40.7644945,29.9808207,daily,supermarket,Migros,,supermarket,,,,
9509010917,node,40.6882491,29.5767506,transport,bus_stop,,,,,bus_stop,,
9509010918,node,40.688494,29.5765853,transport,bus_stop,,,,,bus_stop,,
9514497306,node,40.696636,29.9112359,transport,bus_stop,Gencerler Durağı,,,,bus_stop,platform,
9514497307,node,40.696529,29.9113364,transport,bus_stop,Hacı Aslan Caddesi 1 Durağı,,,,bus_stop,platform,
9515005388,node,40.7710751,29.969464,health,pharmacy,Eczane Lavanta,pharmacy,,,,,
9515079425,node,40.7705404,29.9692837,daily,restaurant,Gazibey Baklava & Börek,restaurant,,,,,
9516532165,node,40.7752167,29.9715656,daily,atm,Türkiye İş Bankası,atm,,,,,
9530712366,node,40.7707196,29.9747522,daily,convenience,Ata Market,,convenience,,,,
9531897807,node,40.7668983,29.9771335,daily,supermarket,Migros,,supermarket,,,,
9531920921,node,40.7672799,29.9760589,other,prep_school,Uğur Kurs,prep_school,,,,,
9531920922,node,40.7672327,29.9759639,other,music_school,Müzik Reyonu Sanat Akademisi,music_school,,,,,
9531936609,node,40.7721341,29.9726639,daily,supermarket,Şok,,supermarket,,,,
9535022055,node,40.7770979,29.9808123,daily,convenience,Aydın Market,,convenience,,,,
9536909023,node,40.7755385,29.9757486,transport,bus_stop,Aktarma Durağı,,,,bus_stop,platform,
9551542291,node,40.7755365,29.9768628,daily,restaurant,Köfteci Yusuf,restaurant,,,,,
9551542292,node,40.7755585,29.9770076,daily,cafe,Coffee Hub,cafe,,,,,
9551542294,node,40.7757387,29.9770236,daily,cafe,,cafe,,,,,
9560635778,node,40.7851578,29.9785557,daily,convenience,Ramazan Market,,convenience,,,,
9575110689,node,40.785972,29.9697912,health,pharmacy,Efe Eczanesi,pharmacy,,,,,
9575161212,node,40.7870423,29.9717221,daily,convenience,Yeşilova Yılmaz Market,,convenience,,,,
9575161521,node,40.7865678,29.9710147,daily,convenience,Toros Market,,convenience,,,,
9575161522,node,40.786653,29.9710892,daily,cafe,Közden Cafe,cafe,,,,,
9575329603,node,40.7887584,29.9620166,daily,supermarket,Şok,,supermarket,,,,
9575418664,node,40.7743605,29.987672,daily,cafe,Kıraathane,cafe,,,,,
9575508597,node,40.7634716,29.9263833,other,driving_school,Çarşı Sürücü Kursu,driving_school,,,,,
9576020370,node,40.7568577,29.948413,daily,supermarket,Migros,,supermarket,,,,
9576106223,node,40.753528,29.9453589,daily,restaurant,Köfteci Yusuf,restaurant,,,,,
9576106225,node,40.7536783,29.9459038,daily,cafe,Starbucks,cafe,,,,,
9576106236,node,40.7534405,29.9464939,daily,restaurant,Lezzet Durağı,restaurant,,,,,
9576106284,node,40.7551969,29.9449571,daily,supermarket,Migros,,supermarket,,,,
9576106291,node,40.7533508,29.9455366,daily,cafe,Kahve Dünyası,cafe,,,,,
9576106297,node,40.7543162,29.9458584,daily,atm,Vakıfbank,atm,,,,,
9576106299,node,40.7543723,29.9458566,daily,atm,Türkiye İş Bankası,atm,,,,,
9576106301,node,40.7544058,29.9459035,daily,atm,Yapı Kredi,atm,,,,,
9576106302,node,40.7542691,29.9462319,daily,atm,ING,atm,,,,,
9576106303,node,40.7542476,29.9462369,daily,atm,Akbank,atm,,,,,
9576106304,node,40.7542269,29.9462422,daily,atm,Garanti Bankası,atm,,,,,
9576106305,node,40.7542074,29.9462483,daily,atm,TEB,atm,,,,,
9576106306,node,40.7541884,29.9462543,daily,atm,Halkbank,atm,,,,,
9576562800,node,40.775975,29.969434,daily,restaurant,Konyalı Lezzet Ustası,restaurant,,,,,
9577968488,node,40.7678939,29.9660274,daily,restaurant,Şahane,restaurant,,,,,
9580454783,node,40.7728071,29.9805975,daily,cafe,"Pure Black Coffee, Alikahya",cafe,,,,,
9580454784,node,40.7724052,29.9782216,daily,supermarket,Otantik Gurme,,supermarket,,,,
9580454785,node,40.7756341,29.9783853,daily,supermarket,A101,,supermarket,,,,
9580454786,node,40.7756674,29.978528,daily,convenience,Kaya Çiftliği,,convenience,,,,
9580454792,node,40.7754708,29.9776538,other,prep_school,Doğru Cevap,prep_school,,,,,
9580454793,node,40.7754324,29.9774923,daily,convenience,Çakmak Market,,convenience,,,,
9581398201,node,40.7646351,29.9340551,daily,cafe,Krepi,cafe,,,,,
9581398204,node,40.7630059,29.9328922,daily,cafe,Mackbear Cafe,cafe,,,,,
9581398205,node,40.7630187,29.9329671,daily,cafe,Mokka,cafe,,,,,
9581398206,node,40.7630274,29.9330035,daily,cafe,Rose Coffee & Cake,cafe,,,,,
9581417618,node,40.7629882,29.9327666,daily,cafe,Monad Cafe,cafe,,,,,
9581417619,node,40.7629972,29.9328159,daily,cafe,Kingslanding Cafe,cafe,,,,,
9581417621,node,40.7629655,29.9326013,daily,cafe,Mountain,cafe,,,,,
9581417640,node,40.7627143,29.9318505,daily,cafe,Monteair,cafe,,,,,
9581417641,node,40.7627978,29.931777,other,language_school,AmericanLIFE,language_school,,,,,
9581417642,node,40.7627901,29.9321798,daily,cafe,Kahve Diyarı,cafe,,,,,
9581417643,node,40.7628387,29.9323864,daily,cafe,Kahve Dünyası,cafe,,,,,
9581417644,node,40.7628311,29.9323088,other,language_school,English Time,language_school,,,,,
9581417645,node,40.7627409,29.9319588,daily,cafe,Otağ Han,cafe,,,,,
9581417646,node,40.7627532,29.9320463,daily,cafe,Snowdrop Cafe,cafe,,,,,
9581417659,node,40.763158,29.9331175,daily,cafe,Casual Coffee Shop,cafe,,,,,
9581417660,node,40.7632842,29.9330751,daily,cafe,Exa Çikolata & Kahve,cafe,,,,,
9583074196,node,40.7680009,29.9645586,other,driving_school,Fethiye Sürücü Kursu,driving_school,,,,,
9583074199,node,40.7680242,29.965191,other,prep_school,ArtıNet Akademi Eğitim Kurumları,prep_school,,,,,
9583200323,node,40.7676031,29.9646942,other,prep_school,,prep_school,,,,,
9583200353,node,40.767481,29.9663473,daily,bank,Burgan Bank,bank,,,,,
9583788838,node,40.7632969,29.962999,daily,supermarket,Kostaş,,supermarket,,,,
9585951644,node,40.7631792,29.927895,health,pharmacy,Semanur Eczanesi,pharmacy,,,,,
9585951645,node,40.7628448,29.9288251,daily,restaurant,MEG Yemek,restaurant,,,,,
9586660815,node,40.7657871,29.9576309,daily,convenience,Östek Market,,convenience,,,,
9597848150,node,40.7674216,29.9669808,other,language_school,İzmit Dil Akademi,language_school,,,,,
9611200200,node,40.7327667,30.1591115,daily,cafe,Bageni Kafe,cafe,,,,,
9611200201,node,40.7328046,30.1594508,daily,restaurant,Bageni Restoran,restaurant,,,,,
9621069441,node,40.7687182,29.9655881,daily,restaurant,Akmeşe Izgara,restaurant,,,,,
9621069443,node,40.7687291,29.9658567,daily,convenience,Duru Mini Market,,convenience,,,,
9621086511,node,40.7714806,29.965411,daily,atm,Ziraat Bankası,atm,,,,,
9621086512,node,40.7710942,29.965312,daily,restaurant,Halil Usta'nın Yeri,restaurant,,,,,
9621098415,node,40.7703675,29.9657276,daily,restaurant,Pak-Et Mersin Tantuni,restaurant,,,,,
9621100983,node,40.7675053,29.9661313,other,language_school,AmericanVip Language Schools,language_school,,,,,
9621106171,node,40.7710958,29.9650593,daily,convenience,Yenişehir Market,,convenience,,,,
9621110228,node,40.7714616,29.9652842,daily,cafe,Cafe'de Kola,cafe,,,,,
9621128991,node,40.7713786,29.9661264,daily,restaurant,Neşem Izgara Salonu,restaurant,,,,,
9621140928,node,40.7680427,29.9656483,other,prep_school,İlge Akademi Sınavlara Hazırlık Kursu,prep_school,,,,,
9621203742,node,40.7716487,29.9702461,daily,atm,Ziraat Bankası,atm,,,,,
9626110798,node,40.7066921,30.1004421,education,college,Kocaeli Üniversitesi Turizm Fakültesi,college,,,,,
9626487243,node,40.7742297,29.9878115,health,pharmacy,Güngör Eczanesi,pharmacy,,,,,
9642991371,node,40.757012,29.7960758,daily,supermarket,BİM,,supermarket,,,,
9643002516,node,40.7560752,29.8176455,daily,supermarket,NivGross Toptan Market,,supermarket,,,,
9643007719,node,40.7563758,29.8108406,daily,restaurant,MutluEt,restaurant,,,,,
9645859522,node,40.7605542,29.9539621,daily,convenience,Akkaya Market,,convenience,,,,
9648347989,node,40.7575936,29.9798186,daily,supermarket,MMM Migros,,supermarket,,,,
9648347990,node,40.7571967,29.9797846,daily,cafe,Hayal Kahvesi Kocaeli,cafe,,,,,
9648347995,node,40.7579121,29.9791846,daily,cafe,Mado,cafe,,,,,
9648347996,node,40.7580131,29.9791257,daily,cafe,Soulmate,cafe,,,,,
9648347997,node,40.7580996,29.9790855,daily,cafe,Alaçatı Muhallebicisi,cafe,,,,,
9665167332,node,40.748744,29.8039286,daily,cafe,Siyah İnci,cafe,,,,,
9665167333,node,40.7487432,29.8070791,daily,cafe,Timata Cafe,cafe,,,,,
9665167334,node,40.7488034,29.8078343,daily,cafe,Bal Marina Cafe & Restaurant,cafe,,,,,
9665167335,node,40.7486152,29.8065004,daily,cafe,Manetto Dondurma & Kafe,cafe,,,,,
9665167336,node,40.7489404,29.8075259,daily,cafe,Joyy Cafe & Restaurant,cafe,,,,,
9665167337,node,40.7488456,29.8058988,daily,cafe,Alice Bahçe Kafe,cafe,,,,,
9666890828,node,40.7283514,30.0712863,daily,cafe,Starbucks,cafe,,,,,
9670087378,node,40.7748882,29.9679363,health,pharmacy,Serap Eczanesi,pharmacy,,,,,
9687476512,node,40.82192,29.9274465,daily,atm,Ziraat Bankası,atm,,,,,
9687692833,node,40.7639748,29.932842,daily,cafe,Çeşme Kahve,cafe,,,,,
9687711493,node,40.7638318,29.9320171,daily,convenience,Ankara Market,,convenience,,,,
9687948722,node,40.821857,29.9273235,daily,atm,Türkiye İş Bankası,atm,,,,,
9687963916,node,40.8216633,29.9280733,daily,bank,Türkiye İş Bankası,bank,,,,,
9688051979,node,40.8238659,29.9214839,daily,atm,Türkiye İş Bankası,atm,,,,,
9688051981,node,40.8238195,29.921367,daily,atm,Ziraat Bankası,atm,,,,,
9688051982,node,40.8238891,29.9212599,daily,atm,QNB Finansbank,atm,,,,,
9688051983,node,40.8237697,29.9212679,daily,atm,Garanti Bankası,atm,,,,,
9688051984,node,40.8237921,29.9209849,daily,atm,Yapı Kredi,atm,,,,,
9688051985,node,40.8237169,29.921102,daily,atm,TEB,atm,,,,,
9688102863,node,40.8216985,29.9282349,daily,atm,Ziraat Bankası,atm,,,,,
9688190131,node,40.8238454,29.9211246,daily,atm,Halk Bankası,atm,,,,,
9690683131,node,40.7664403,29.9766055,health,pharmacy,Arastapark Eczanesi,pharmacy,,,,,
9690685580,node,40.8228231,29.9281494,health,pharmacy,Umuttepe Eczanesi,pharmacy,,,,,
9690698575,node,40.8229447,29.9278633,health,pharmacy,Nergis Eczane,pharmacy,,,,,
9690705071,node,40.8228564,29.9280407,daily,convenience,Mıstık Market,,convenience,,,,
9690728917,node,40.7643826,29.9405409,daily,cafe,Starbucks,cafe,,,,,
9690728920,node,40.7652624,29.9373006,daily,cafe,Bilgem Kafe,cafe,,,,,
9696301269,node,40.7293505,30.056304,daily,restaurant,Saklı Bahçe,restaurant,,,,,
9696301270,node,40.7291645,30.0563067,daily,restaurant,Mekan 41 Büfe ve Ev Yemekleri,restaurant,,,,,
9696310025,node,40.7199776,30.0573121,daily,atm,Akbank,atm,,,,,
9696366860,node,40.7035335,30.0541672,daily,supermarket,Tarım Kredi Kooperatif Market,,supermarket,,,,
9696366882,node,40.7018051,30.0537823,daily,supermarket,Hakmar,,supermarket,,,,
9696366883,node,40.7020377,30.053647,daily,supermarket,BİM,,supermarket,,,,
9697987449,node,40.7372822,30.0528842,daily,cafe,Salon Karadere,cafe,,,,,
9697987461,node,40.7392086,30.0524041,daily,restaurant,Arifoğlu Gaziantep Baklavacısı,restaurant,,,,,
9699234816,node,40.7013464,30.0244093,daily,supermarket,A101,,supermarket,,,,
9704250342,node,40.7395951,30.0171975,daily,cafe,Johan Sebastian Coffee,cafe,,,,,
9705360676,node,40.8250381,29.9194101,daily,cafe,Nihavend,cafe,,,,,
9705369917,node,40.8246728,29.9185518,daily,atm,Ziraat Bankası,atm,,,,,
9705369918,node,40.8248108,29.9184177,daily,atm,Türkiye İş Bankası,atm,,,,,
9707770545,node,40.7383421,29.9987054,daily,supermarket,BİM,,supermarket,,,,
9711589000,node,40.7603983,29.9500891,health,pharmacy,42 Evler Eczanesi,pharmacy,,,,,
9711664185,node,40.7607413,29.9252784,transport,bus_stop,,,,,bus_stop,platform,
9711664186,node,40.7607413,29.9253573,transport,bus_stop,,,,,bus_stop,platform,
9711664187,node,40.7608072,29.9252808,transport,bus_stop,,,,,bus_stop,platform,
9711664188,node,40.7608078,29.9253573,transport,bus_stop,,,,,bus_stop,platform,
9721632685,node,40.8244802,29.9238029,daily,cafe,Ada Cafe,cafe,,,,,
9721640510,node,40.8222835,29.9336044,daily,supermarket,Migros Jet,,supermarket,,,,
9721648413,node,40.8222848,29.9338018,daily,cafe,Coffee Chefs,cafe,,,,,
9721659612,node,40.8242118,29.9246234,daily,cafe,Cafe Park,cafe,,,,,
9721670003,node,40.8222972,29.9334721,daily,cafe,Coffee Roaster,cafe,,,,,
9721670090,node,40.8243197,29.9239269,daily,convenience,Baydem Market,,convenience,,,,
9721672348,node,40.8223952,29.9331903,daily,cafe,Starbucks,cafe,,,,,
9721678106,node,40.8231692,29.92674,health,pharmacy,Eczane Çokan,pharmacy,,,,,
9721686360,node,40.8242408,29.9242103,daily,cafe,Granny's Waffles,cafe,,,,,
9721689889,node,40.8242582,29.9241312,daily,cafe,Osmanlı Cafe,cafe,,,,,
9721690299,node,40.823091,29.9270962,daily,convenience,Erdal Bakkal,,convenience,,,,
9721694256,node,40.8231572,29.9268155,health,pharmacy,Eczane Üniversite,pharmacy,,,,,
9721698372,node,40.8231161,29.9270094,health,pharmacy,Eczane Nurgül,pharmacy,,,,,
9721701419,node,40.8204955,29.9234981,daily,atm,Ziraat Bankası,atm,,,,,
9722200449,node,40.8230811,29.9300694,daily,cafe,SoulMate Coffee,cafe,,,,,
9722200450,node,40.8229923,29.9305342,daily,supermarket,Carrefour,,supermarket,,,,
9722204270,node,40.8212714,29.9274663,daily,atm,Türkiye İş Bankası,atm,,,,,
9722229556,node,40.8211878,29.9276715,daily,cafe,Mahur Kafe,cafe,,,,,
9722234072,node,40.82114,29.9275189,daily,atm,Ziraat Bankası,atm,,,,,
9723245987,node,40.8236892,29.9247259,transport,bus_stop,Umuttepe B Kapısı Durak,,,,bus_stop,platform,
9739824453,node,40.765327,29.9380203,daily,supermarket,A101,,supermarket,,,,
9739937614,node,40.7638677,29.9565627,daily,restaurant,Özpaşa Sofrası,restaurant,,,,,
9741753598,node,40.7655464,29.9460892,daily,restaurant,Sarıyer Börek,restaurant,,,,,
9742085335,node,40.7568012,29.9486107,daily,cafe,Starbucks,cafe,,,,,
9746980112,node,40.7618604,29.8599469,transport,bus_stop,,,,,bus_stop,platform,
9751718257,node,40.7663733,29.9766673,daily,cafe,Karafırın,cafe,,,,,
9751773311,node,40.772604,29.9799519,daily,cafe,Fully Bubble Waffle,cafe,,,,,
9775783800,node,40.763176,29.9651178,transport,bus_stop,,,,,bus_stop,platform,
9775783801,node,40.7635536,29.9657538,transport,bus_stop,,,,,bus_stop,platform,
9777844480,node,40.7634147,29.9288011,daily,cafe,Pişkin Simit Fırını,cafe,,,,,
9777844482,node,40.7633601,29.9283737,daily,bank,Ziraat Bankası,bank,,,,,
9777844524,node,40.7632236,29.9284935,daily,bank,TEB,bank,,,,,
9777844530,node,40.7631438,29.9285052,daily,bank,alBaraka,bank,,,,,
9777844531,node,40.762715,29.9286073,health,pharmacy,Eczane Nesrin,pharmacy,,,,,
9777844538,node,40.7622331,29.9286979,daily,cafe,Kafe Sarı,cafe,,,,,
9779556421,node,40.7636305,29.9284189,daily,bank,Vakıfbank,bank,,,,,
9779556426,node,40.7625965,29.9304883,daily,cafe,Keyf-i İkram,cafe,,,,,
9779808753,node,40.7586301,29.9891282,transport,bus_stop,,,,,bus_stop,platform,
9779808754,node,40.7581059,29.9889458,transport,bus_stop,Pakmaya,,,,bus_stop,platform,
9779808755,node,40.7594524,29.9799274,transport,bus_stop,,,,,bus_stop,platform,
9779808762,node,40.7607568,29.9747846,transport,bus_stop,,,,,bus_stop,platform,
9779808763,node,40.761281,29.9710276,transport,bus_stop,,,,,bus_stop,platform,
9779808764,node,40.7608923,29.9697564,transport,bus_stop,,,,,bus_stop,platform,
9779808765,node,40.7628293,29.9663294,transport,bus_stop,Kınalı Asker,,,,bus_stop,platform,
9779808766,node,40.7633285,29.9717514,transport,bus_stop,,,,,bus_stop,platform,
9779808767,node,40.7634865,29.9739932,transport,bus_stop,,,,,bus_stop,platform,
9782389162,node,40.7680573,29.9758211,transport,bus_stop,,,,,bus_stop,platform,
9783701415,node,40.7729699,30.0149507,daily,restaurant,Er&Bil Unlu Mamülleri,restaurant,,,,,
9788849309,node,40.7136744,29.9076495,daily,cafe,ediFicus Waffle & Foods,cafe,,,,,
9793640803,node,40.7705442,30.0055559,transport,bus_stop,,,,,bus_stop,platform,
9793665185,node,40.7709344,30.0052591,daily,supermarket,A101,,supermarket,,,,
9801567107,node,40.7655471,29.9391885,daily,cafe,Vero Makarna & Pizza,cafe,,,,,
9812151563,node,40.7890222,29.9442204,health,pharmacy,Çağla Eczanesi,pharmacy,,,,,
9814647465,node,40.8007607,29.9528903,health,pharmacy,Gündoğdu Eczanesi,pharmacy,,,,,
9815160653,node,40.8001096,29.948544,health,clinic,Gündoğdu 3 Nolu Aile Sağlığı Merkezi,clinic,,,,,
9817704359,node,40.8016691,29.9748887,health,pharmacy,Bayındırlık Eczanesi,pharmacy,,,,,
9817785614,node,40.8019544,29.9747523,daily,supermarket,MOPAŞ,,supermarket,,,,
9822296094,node,40.7385977,30.0307761,daily,convenience,Her Market,,convenience,,,,
9823400782,node,40.8138107,29.9387868,transport,bus_stop,,,,,bus_stop,platform,
9823400783,node,40.8138337,29.9382975,transport,bus_stop,,,,,bus_stop,platform,
9825180099,node,40.768605,29.8665678,daily,supermarket,BİM,,supermarket,,,,
9825206863,node,40.7689741,29.8665591,daily,supermarket,A101,,supermarket,,,,
9825206866,node,40.7690948,29.8666004,daily,supermarket,Migros Jet,,supermarket,,,,
9830891573,node,40.748089,29.8081609,transport,ferry_terminal,Derince Vapur İskelesi,ferry_terminal,,,,station,
9830994864,node,40.7653036,29.9475444,transport,bus_stop,Atatürk Ortaokulu,,,,bus_stop,platform,
9830994865,node,40.7650392,29.948362,transport,bus_stop,Atatürk Ortaokulu-1,,,,bus_stop,platform,
9830994884,node,40.7653535,29.9478993,daily,convenience,Uğur Market,,convenience,,,,
9830994888,node,40.7653714,29.9487101,daily,restaurant,Kışla Ciğer Kebap Salonu,restaurant,,,,,
9830994889,node,40.7649486,29.9486176,daily,restaurant,Konyalı Etli Ekmek & Fırın Kebap,restaurant,,,,,
9830994990,node,40.7660378,29.9460955,daily,convenience,Elif Market,,convenience,,,,
9830995078,node,40.7657441,29.9436003,daily,convenience,Emin Mini Market,,convenience,,,,
9830995080,node,40.7657371,29.9437435,daily,restaurant,Köfteci Yücel,restaurant,,,,,
9830995081,node,40.7655987,29.9447743,transport,bus_stop,Esendal Durağı,,,,bus_stop,platform,
9833565795,node,40.76591,29.9345281,daily,convenience,Kaya Çiftliği,,convenience,,,,
9833565796,node,40.7656543,29.9343776,daily,supermarket,Hakmar,,supermarket,,,,
9835212029,node,40.76199,29.9369701,transport,bus_stop,,,,,bus_stop,platform,
9835725337,node,40.7624341,29.9336119,daily,cafe,Benzin,cafe,,,,,
9836675881,node,40.7668248,29.933563,daily,convenience,Nokta Market,,convenience,,,,
9836676661,node,40.7666339,29.9335085,health,pharmacy,Eskin Eczanesi,pharmacy,,,,,
9836676666,node,40.7667356,29.9339843,daily,restaurant,Şeker Börek,restaurant,,,,,
9836676668,node,40.7667445,29.9340317,daily,restaurant,Saray Börekçisi,restaurant,,,,,
9836676672,node,40.7668117,29.934355,daily,restaurant,Tarihi Fethi Baba Lokantası,restaurant,,,,,
9836676675,node,40.7668915,29.9347033,daily,convenience,Emirler Market,,convenience,,,,
9837291622,node,40.7660029,29.928398,transport,bus_stop,Cumhuriyet Parkı,,,,bus_stop,platform,
9837291623,node,40.7660023,29.9286555,transport,bus_stop,Cumhuriyet Parkı,,,,bus_stop,platform,
9840963039,node,40.7760951,29.9765511,other,prep_school,Çınar İzmit Özel Öğretim Kursu,prep_school,,,,,
9842018368,node,40.7697435,29.9608157,health,pharmacy,Sema Eczanesi,pharmacy,,,,,
9845113173,node,40.7737208,29.9621713,health,pharmacy,Evrim Eczanesi,pharmacy,,,,,
9845113174,node,40.7734423,29.9615194,health,pharmacy,Güneş Eczanesi,pharmacy,,,,,
9845302150,node,40.7274579,30.047658,daily,cafe,Cafe Mira,cafe,,,,,
9845394015,node,40.7644823,29.9464997,daily,supermarket,BİM,,supermarket,,,,
9845400657,node,40.7663912,29.9449207,daily,supermarket,Şok,,supermarket,,,,
9845400658,node,40.7657407,29.9483425,daily,supermarket,A101,,supermarket,,,,
9847939233,node,40.7600828,29.9756929,transport,bus_stop,Yahya Kaptan Güney Yanyol,,,,bus_stop,platform,
9847953584,node,40.756609,29.9496817,daily,cafe,Mado,cafe,,,,,
9847953588,node,40.7571212,29.9493827,daily,cafe,Alaçatı Muhallebicisi,cafe,,,,,
9847981529,node,40.7575203,29.9422378,daily,restaurant,Beytül Kebap,restaurant,,,,,
9848081914,node,40.7664399,29.9377018,health,pharmacy,Eczane Özer,pharmacy,,,,,
9848081915,node,40.7664643,29.9376957,health,pharmacy,Eczane Ertuğrul,pharmacy,,,,,
9848081951,node,40.7669955,29.9375471,health,pharmacy,Eczane Korhan,pharmacy,,,,,
9848081958,node,40.7675491,29.9374464,health,pharmacy,Aile Eczanesi,pharmacy,,,,,
9848127398,node,40.7657523,29.9381274,other,driving_school,Çelebi Sürücü Kursu,driving_school,,,,,
9848127400,node,40.7655795,29.9391774,other,driving_school,İzmitim Sürücü Kursu,driving_school,,,,,
9848127403,node,40.7658079,29.939125,health,pharmacy,Aslı Eczanesi,pharmacy,,,,,
9848127416,node,40.7650301,29.9390384,daily,cafe,Yepita Boşnak Börekçisi,cafe,,,,,
9848156033,node,40.7651861,29.9404914,daily,restaurant,Mahmut Usta,restaurant,,,,,
9848156035,node,40.7651241,29.9405806,daily,convenience,Sabah Büfe,,convenience,,,,
9848156037,node,40.7647803,29.9401254,daily,restaurant,Masala Kebap,restaurant,,,,,
9848619750,node,40.759335,29.9344999,daily,supermarket,Çağrı Market,,supermarket,,,,
9850272246,node,40.7636894,29.9287279,other,language_school,Dil Kasabası Yabancı Dil Okulu,language_school,,,,,
9850333950,node,40.7625058,29.9305217,daily,cafe,Chocolabs,cafe,,,,,
9850369970,node,40.7641861,29.9282808,daily,cafe,İzmit Simit Fırını,cafe,,,,,
9850375047,node,40.76313,29.9269473,daily,bank,Odeabank,bank,,,,,
9852857379,node,40.7630819,29.9295874,daily,supermarket,A101,,supermarket,,,,
9852857380,node,40.7630888,29.929515,daily,cafe,Cafe 41 Bistro,cafe,,,,,
9852857381,node,40.7631015,29.9294453,health,clinic,Konrad Görüntüleme Merkezi,clinic,,,,,
9852857391,node,40.7640152,29.9294274,daily,cafe,Kahve Gezegeni,cafe,,,,,
9852857410,node,40.7631774,29.9290618,daily,restaurant,,restaurant,,,,,
9853116346,node,40.7642559,29.9279242,daily,restaurant,Lezzet Börek ve Pide Salonu,restaurant,,,,,
9853449762,node,40.7639753,29.9270185,education,school,T.E.D. Akademi,school,,,,,
9853449801,node,40.7643446,29.9304303,daily,cafe,Karalar Seymen Simit,cafe,,,,,
9853449805,node,40.7642627,29.9304531,daily,convenience,Çakmak Market,,convenience,,,,
9853449807,node,40.7641643,29.9304758,daily,convenience,Peynirci Baba,,convenience,,,,
9858682200,node,40.776073,29.9694927,daily,restaurant,Meşhur Kavurmacı,restaurant,,,,,
9865951405,node,40.7735989,29.9801053,other,prep_school,Final VIP Kurs,prep_school,,,,,
9870207779,node,40.7848787,29.9779146,daily,supermarket,Hakmar,,supermarket,,,,
9874612261,node,40.7161192,29.9255183,daily,cafe,Günbatımı Cafe,cafe,,,,,
9880630861,node,40.9096468,29.8973254,daily,cafe,Gölet Kafe,cafe,,,,,
9882577132,node,40.7626402,29.9383901,daily,bank,Vakıf Katılım,bank,,,,,
9882577133,node,40.7626053,29.933527,daily,cafe,Art de Vivre,cafe,,,,,
9882577134,node,40.7626215,29.935142,daily,restaurant,Boşnak Börekçi,restaurant,,,,,
9882594278,node,40.7619503,29.9235195,daily,restaurant,Asya Restaurant,restaurant,,,,,
9882594280,node,40.7619865,29.9239861,daily,cafe,Coffee Ariba,cafe,,,,,
9891100712,node,40.7672997,29.9669472,other,prep_school,Limit Eğitim Kurumları,prep_school,,,,,
9891115758,node,40.7634208,29.9617729,daily,cafe,Çınaraltı Künefe,cafe,,,,,
9894199194,node,40.7368255,30.1420517,health,pharmacy,Uzuntarla Eczanesi,pharmacy,,,,,
9894199195,node,40.7369702,30.1427625,transport,bus_stop,,,,,bus_stop,platform,
9894199196,node,40.7404643,30.1458102,transport,bus_stop,,,,,bus_stop,platform,
9894199197,node,40.7381397,30.1443257,transport,bus_stop,,,,,bus_stop,platform,
9899657187,node,40.7746447,29.9872521,daily,cafe,Organic Sepeti Renkli Cafe,cafe,,,,,
9916549673,node,40.7891318,29.4175678,daily,park,Soma Şehitleri Parkı,,,park,,,
9916878374,node,40.7887541,29.4176482,daily,restaurant,Gönül Sofrası,restaurant,,,,,
9916878375,node,40.788746,29.4177555,daily,restaurant,Zakirbey Cağ Kebap,restaurant,,,,,
9916878380,node,40.7881672,29.4168918,daily,restaurant,Asel'in Mutfağı,restaurant,,,,,
9916878386,node,40.7901776,29.4181149,daily,convenience,Halis Kahvalti,,convenience,,,,
9921248301,node,40.7604066,29.9110921,daily,cafe,Palmiye Cafe,cafe,,,,,
9921248302,node,40.7605117,29.9115579,daily,cafe,Antikkapı Cafe&Restorant,cafe,,,,,
9921261440,node,40.7591386,29.9088938,daily,cafe,Secafe,cafe,,,,,
9921261441,node,40.7599141,29.909883,daily,cafe,Saltanat Kayığı,cafe,,,,,
9925707291,node,40.6886632,30.2421025,daily,restaurant,Seyko Cafe & Izgara,restaurant,,,,,
9927382654,node,40.7227941,29.7843237,transport,ferry_terminal,Değirmendere Vapur İskelesi,ferry_terminal,,,,station,
9943456151,node,40.6893367,30.2352603,daily,convenience,Carrefour,,convenience,,,,
9943586013,node,40.6889568,30.2387283,daily,atm,Akbank,atm,,,,,
9943594614,node,40.6930865,30.2224525,daily,atm,Akbank,atm,,,,,
9943599505,node,40.693086,30.2224716,daily,atm,İş Bankası,atm,,,,,
9943599509,node,40.6944171,30.2365599,daily,atm,Türkiye İş Bankası,atm,,,,,
9943767617,node,40.6892768,30.2347365,daily,atm,Türkiye İş Bankası,atm,,,,,
9943787157,node,40.6906813,30.2220605,daily,atm,Garanti Bankası,atm,,,,,
9943789168,node,40.6930911,30.222505,daily,atm,,atm,,,,,
9943795295,node,40.6892468,30.2347231,daily,atm,Kuveyt Türk,atm,,,,,
9943807140,node,40.6892617,30.2347296,daily,atm,,atm,,,,,
9951192542,node,40.7757342,29.9772755,other,language_school,Doğru Dil Yabancı Dil Kursu,language_school,,,,,
9952242163,node,40.7728266,29.9567503,transport,bus_stop,,,,,bus_stop,platform,
9952612372,node,40.7518013,29.8103351,daily,supermarket,Migros Jet,,supermarket,,,,
9953573399,node,40.7629858,29.877747,transport,bus_stop,SGK İl Müdürlüğü D-100,,,,bus_stop,platform,
9954499182,node,40.7630887,29.9470665,education,school,İzmit Dr. Sadık Ahmet Akademi (Akademi Lise),school,,,,,
9954742156,node,40.7594262,29.9780915,health,pharmacy,Eczane Zeynep,pharmacy,,,,,
9956954360,node,40.7642692,29.9260068,other,driving_school,Bimser Sürücü Kursu,driving_school,,,,,
9957041812,node,40.6930793,30.2226851,health,pharmacy,Kırkpınar Eczanesi,pharmacy,,,,,
9957041813,node,40.6943958,30.2226098,health,pharmacy,İpekyolu Eczanesi,pharmacy,,,,,
9957045580,node,40.7649639,29.9260429,daily,restaurant,Sofram Pide Bank,restaurant,,,,,
9957045581,node,40.7649972,29.9260334,other,prep_school,Uğur Kurs,prep_school,,,,,
9957045590,node,40.764466,29.9260078,health,pharmacy,Eczane İzmit,pharmacy,,,,,
9957045592,node,40.7645073,29.9259499,other,driving_school,Fethiye Sürücü Kursu,driving_school,,,,,
9957045598,node,40.7648174,29.9258475,daily,cafe,Cafe Elena,cafe,,,,,
9957045599,node,40.7648423,29.9259045,health,pharmacy,Eczane Özcan,pharmacy,,,,,
9957045606,node,40.7651139,29.9257042,other,language_school,Akın Dil Okulu,language_school,,,,,
9957045607,node,40.7650015,29.9256771,daily,cafe,Cimcime,cafe,,,,,
9957057225,node,40.7650134,29.9251028,daily,cafe,Cafe'miz 41,cafe,,,,,
9957130537,node,40.7650888,29.9282919,daily,bank,QNB,bank,,,,,
9957130548,node,40.7644377,29.92842,health,pharmacy,Alemdar Eczanesi,pharmacy,,,,,
9957130583,node,40.7641422,29.9284964,health,pharmacy,Marmara Eczanesi,pharmacy,,,,,
9957173945,node,40.6928093,30.2016396,health,pharmacy,Kurtköy Eczanesi,pharmacy,,,,,
9957782661,node,40.8009264,29.9519692,daily,cafe,Elmira Pasta Börek,cafe,,,,,
9957782662,node,40.8008813,29.9522179,daily,supermarket,Egemen Market,,supermarket,,,,
9957782664,node,40.8008309,29.9525102,daily,restaurant,Pizzaland Cafe & Restaurant,restaurant,,,,,
9957782668,node,40.8010898,29.9520184,daily,cafe,Cafe Laflafa,cafe,,,,,
9957841899,node,40.797325,29.9292989,transport,bus_stop,,,,,bus_stop,platform,
9957841900,node,40.7972044,29.9288475,transport,bus_stop,,,,,bus_stop,platform,
9957856266,node,40.7995306,29.9304134,transport,bus_stop,,,,,bus_stop,platform,
9957856267,node,40.7994384,29.9297548,transport,bus_stop,,,,,bus_stop,platform,
9958038759,node,40.7938454,29.9295786,transport,bus_stop,,,,,bus_stop,platform,
9958072454,node,40.7904147,29.9277608,transport,bus_stop,,,,,bus_stop,platform,
9958072455,node,40.7904894,29.9281192,transport,bus_stop,,,,,bus_stop,platform,
9959965680,node,40.7609459,29.8824443,daily,convenience,,,convenience,,,,
9965868916,node,40.7758493,29.9783918,health,pharmacy,Hacettepe Eczanesi,pharmacy,,,,,
9965931763,node,40.7640744,29.9310384,daily,convenience,Karadeniz Market,,convenience,,,,
9965933625,node,40.7625828,29.9367458,daily,bank,Kuveyt Türk,bank,,,,,
9965933626,node,40.7625604,29.9364157,daily,bank,Halkbank,bank,,,,,
9965933628,node,40.7625888,29.9369494,daily,bank,Alternatif Bank,bank,,,,,
9965949065,node,40.7648541,29.928163,health,pharmacy,,pharmacy,,,,,
9965954426,node,40.7649325,29.9287598,daily,cafe,Keyf-i İkram,cafe,,,,,
9966466701,node,40.7725313,29.9907722,daily,convenience,Köşe Market,,convenience,,,,
9966466703,node,40.7722764,29.9906471,daily,cafe,,cafe,,,,,
9966466704,node,40.7721665,29.9910558,daily,supermarket,A101,,supermarket,,,,
9966466705,node,40.7721909,29.9911592,transport,bus_stop,Sakıp Sabancı Bulvarı 1,,,,bus_stop,platform,
9966466706,node,40.772267,29.9911857,transport,bus_stop,Sakıp Sabancı Bulvarı,,,,bus_stop,platform,
9966473020,node,40.7712783,29.9937666,daily,convenience,Gözde Market,,convenience,,,,
9966473021,node,40.7712812,29.9939373,daily,cafe,Gözde Cafe,cafe,,,,,
9966473022,node,40.7715584,29.9946732,daily,restaurant,Başoğlu Kebap,restaurant,,,,,
9966473023,node,40.77127,29.9942521,daily,restaurant,Arırang Restaurant,restaurant,,,,,
9966473040,node,40.7716192,29.9966503,daily,convenience,Candan Bakkal,,convenience,,,,
9966473048,node,40.771372,29.9987538,daily,convenience,Melih Market,,convenience,,,,
9966473094,node,40.7707296,30.0048497,daily,supermarket,Akar Market,,supermarket,,,,
9968615365,node,40.7648075,29.9378603,daily,restaurant,Karadeniz Pide Salonu,restaurant,,,,,
9968615369,node,40.7651405,29.9397782,daily,cafe,Plenty Coffee,cafe,,,,,
9968615374,node,40.7651884,29.9403025,other,internet_cafe,Özkar İnternet Cafe,internet_cafe,,,,,
9968718999,node,40.7629947,29.9317025,other,language_school,Wall Street English,language_school,,,,,
9968719000,node,40.7630673,29.9316731,daily,cafe,Afife,cafe,,,,,
9968719002,node,40.7631254,29.9316461,daily,cafe,Kanca Cafe,cafe,,,,,
9968843768,node,40.6940592,30.2011604,health,clinic,Kurtköy Aile Sağlığı Merkezi,clinic,,,,,
9968845905,node,40.694183,30.2222981,health,clinic,Kırkpınar Aile Sağlığı Merkezi,clinic,,,,,
9970705089,node,40.7920727,29.9650111,daily,supermarket,BİM,,supermarket,,,,
9984724716,node,40.7639221,29.9471083,daily,bank,Garanti Bankası,bank,,,,,
9984743917,node,40.7639244,29.9469671,daily,bank,Yapı Kredi,bank,,,,,
9986203884,node,40.7826744,29.9319605,transport,bus_stop,,,,,bus_stop,platform,
9986203885,node,40.7825182,29.9318347,transport,bus_stop,,,,,bus_stop,platform,
9986946568,node,40.7653077,29.9184771,health,pharmacy,Ayşegül Eczanesi,pharmacy,,,,,
9986946569,node,40.7647941,29.9186988,health,pharmacy,Saraybahçe Eczanesi,pharmacy,,,,,
9986946587,node,40.7644992,29.9191265,health,pharmacy,Güner Eczanesi,pharmacy,,,,,
9993058379,node,40.7658261,29.9264551,daily,supermarket,Hakmar,,supermarket,,,,
9993058382,node,40.7658771,29.9267406,health,pharmacy,Eczane Duygu,pharmacy,,,,,
9993058388,node,40.7654572,29.925721,daily,restaurant,,restaurant,,,,,
9993058390,node,40.7653257,29.9257684,daily,cafe,,cafe,,,,,
9993058393,node,40.7659603,29.9255124,daily,supermarket,A101,,supermarket,,,,
9993058394,node,40.766062,29.9255248,other,prep_school,Özel Nazmi Arıkan Fen Bilimleri Özel Öğretim Kursu,prep_school,,,,,
9993058416,node,40.7653132,29.9250321,daily,atm,Türkiye İş Bankası,atm,,,,,
9993073917,node,40.765487,29.9250223,daily,restaurant,Sokak Pilavcısı,restaurant,,,,,
9993073920,node,40.7652439,29.9248851,daily,restaurant,Sarıyer Börek,restaurant,,,,,
9993073922,node,40.7652295,29.9247702,health,pharmacy,Eczane Senem,pharmacy,,,,,
9993073926,node,40.7654135,29.9244581,daily,cafe,Kahve Köşkü,cafe,,,,,
9993073938,node,40.76493,29.923868,daily,restaurant,Daichi Sushi,restaurant,,,,,
9993073942,node,40.7649795,29.9233515,daily,supermarket,Şok,,supermarket,,,,
9993073955,node,40.7648735,29.9230965,daily,atm,Akbank,atm,,,,,
9993082240,node,40.763251,29.9261159,daily,restaurant,Boşnak Börekçi,restaurant,,,,,
9993082249,node,40.7631075,29.9251474,daily,bank,Ziraat Katılım,bank,,,,,
9993298447,node,40.7630433,29.9249012,daily,restaurant,Öge Zade Kebap,restaurant,,,,,
9993298456,node,40.7629874,29.9244988,daily,atm,TEB,atm,,,,,
9993298459,node,40.7629583,29.9243309,daily,restaurant,Has Köfte,restaurant,,,,,
9993298468,node,40.7629165,29.9240563,daily,bank,Ziraat Bankası,bank,,,,,
9993298484,node,40.7628725,29.9236232,daily,bank,Denizbank,bank,,,,,
9993298501,node,40.7627621,29.9229216,daily,cafe,Mahmut Usta,cafe,,,,,
9993298514,node,40.7625342,29.9231861,daily,cafe,Simitİz,cafe,,,,,
9993304517,node,40.7623762,29.9229974,daily,restaurant,Esin Kebap & Lahmacun,restaurant,,,,,
9993304522,node,40.7625759,29.9235318,daily,restaurant,Serde Börek,restaurant,,,,,
9993304523,node,40.7625855,29.9235996,daily,atm,QNB Finansbank,atm,,,,,
9993304524,node,40.7624606,29.9235087,daily,restaurant,Dayı'nın Yeri,restaurant,,,,,
9993304544,node,40.7626807,29.9243535,daily,supermarket,A101,,supermarket,,,,
9993304547,node,40.7627064,29.9244613,daily,restaurant,Tatlıses Lahmacun,restaurant,,,,,
9993343444,node,40.7656907,29.9282929,daily,cafe,Sütten,cafe,,,,,
9993343448,node,40.7657166,29.9285508,daily,convenience,Park Kuruyemiş,,convenience,,,,
9993343516,node,40.766071,29.929839,daily,convenience,Ekonomi Pazarı,,convenience,,,,
9993347721,node,40.7660396,29.929599,health,pharmacy,Eczane Erem,pharmacy,,,,,
9993347726,node,40.7661449,29.9293177,daily,convenience,Park Market,,convenience,,,,
9993347728,node,40.7661406,29.9302172,daily,restaurant,Özler Et,restaurant,,,,,
9997235020,node,40.7667581,29.9270182,health,clinic,Yeni Cuma Aile Sağlığı Merkezi,clinic,,,,,
9997982334,node,40.7627054,29.9377388,daily,bank,Türkiye Finans,bank,,,,,
9997982335,node,40.7627026,29.9376056,daily,bank,Ziraat Bankası,bank,,,,,
10002788973,node,40.7649259,29.9128827,transport,bus_stop,,,,,bus_stop,platform,
10002788975,node,40.7651679,29.9112665,transport,bus_stop,,,,,bus_stop,platform,
10012308982,node,40.7720687,29.9792062,daily,cafe,Big Cake,cafe,,,,,
10012308983,node,40.7721326,29.979356,daily,cafe,,cafe,,,,,
10012308984,node,40.772315,29.9790924,daily,cafe,Hookus,cafe,,,,,
10013421998,node,40.7850873,29.9294672,transport,bus_stop,,,,,bus_stop,platform,
10013421999,node,40.7852006,29.9291131,transport,bus_stop,,,,,bus_stop,platform,
10019433351,node,40.791256,29.871302,health,pharmacy,Akpınar Eczanesi,pharmacy,,,,,
10040164750,node,40.7554242,30.023025,daily,supermarket,File,,supermarket,,,,
10040276253,node,40.7546411,30.0232162,daily,supermarket,BİM,,supermarket,,,,
10040276255,node,40.7548635,30.0232378,health,pharmacy,Eczane Erhan,pharmacy,,,,,
10040276259,node,40.7551291,30.0232619,daily,convenience,Kaya Çiftliği,,convenience,,,,
10040276261,node,40.7553986,30.0240154,daily,supermarket,A101,,supermarket,,,,
10040276262,node,40.7551252,30.0229735,health,pharmacy,Eczane Serra,pharmacy,,,,,
10040276263,node,40.7542943,30.0231036,health,pharmacy,Eczane Duru,pharmacy,,,,,
10040276265,node,40.7543194,30.0229156,health,pharmacy,Eczane Güneş,pharmacy,,,,,
10040469611,node,40.7552493,30.0214043,daily,convenience,Şafak Market,,convenience,,,,
10040472022,node,40.7556069,30.0186069,daily,restaurant,Özer Lahmacun & Pide Salonu,restaurant,,,,,
10040472031,node,40.7553833,30.0245906,other,driving_school,Canbey Sürücü Kursu,driving_school,,,,,
10040472033,node,40.7553645,30.0248417,daily,supermarket,Şok,,supermarket,,,,
10040472035,node,40.7553548,30.025715,daily,convenience,Akmar Market,,convenience,,,,
10045374564,node,40.755558,30.0309444,daily,convenience,Ekomini,,convenience,,,,
10045374580,node,40.7548292,30.0298109,daily,restaurant,Özpolatlar,restaurant,,,,,
10045374593,node,40.7551684,30.0279658,daily,restaurant,Aktem Yemek Salonu,restaurant,,,,,
10045374601,node,40.7552483,30.0273351,daily,supermarket,Günkay Market,,supermarket,,,,
10053356261,node,40.6910734,29.6046056,daily,supermarket,Dostlar Süpermarket,,supermarket,,,,
10068894426,node,40.7503895,30.043175,transport,bus_stop,Çelik Halat Üst Geçidi 1,,,,bus_stop,platform,
10074853122,node,40.8015918,29.7638157,health,pharmacy,,pharmacy,,,,,
10074853123,node,40.8015273,29.7638502,daily,convenience,,,convenience,,,,
10075009124,node,40.7651952,29.8423559,health,pharmacy,Gözde Eczanesi,pharmacy,,,,,
10075009125,node,40.7649427,29.8420621,health,clinic,Çınarlı Mahallesi Sağlık Ocağı,clinic,,,,,
10075199038,node,40.880246,29.4382248,transport,bus_stop,,,,,bus_stop,platform,
10085836180,node,40.7487058,30.0542182,daily,restaurant,Bizim Lokanta,restaurant,,,,,
10152061233,node,40.7641422,29.9200244,daily,supermarket,A101,,supermarket,,,,
10152061234,node,40.7641677,29.9203468,daily,convenience,Kaya Çiftliği,,convenience,,,,
10152061237,node,40.7641971,29.9206225,daily,supermarket,BİM,,supermarket,,,,
10152061270,node,40.7643357,29.9223589,daily,convenience,Enes Kuruyemiş,,convenience,,,,
10152061275,node,40.7644442,29.9218345,other,prep_school,Özel Pusula Özel Öğretim Kursu,prep_school,,,,,
10152061292,node,40.7648654,29.9189399,daily,convenience,Maya Market,,convenience,,,,
10152061293,node,40.7648136,29.9189667,daily,supermarket,Şok,,supermarket,,,,
10152061295,node,40.7648009,29.9186737,daily,atm,,atm,,,,,
10173937114,node,40.6983072,29.8849759,transport,bus_stop,Sağlık ve Teknoloji Üniversitesi,,,,bus_stop,platform,
10173937115,node,40.6982652,29.8852711,transport,bus_stop,Sağlık Teknoloji Üniversitesi 1,,,,bus_stop,platform,
10174409491,node,40.6979231,29.8817906,transport,bus_stop,Erbay Cami,,,,bus_stop,platform,
10174409492,node,40.697975,29.8817862,transport,bus_stop,Erbay Cami 1,,,,bus_stop,platform,
10233509330,node,40.7720867,29.9784201,daily,cafe,Sommario,cafe,,,,,
10302243769,node,40.8033381,29.462861,daily,bank,Türkiye İş Bankası,bank,,,,,
10302243825,node,40.7872551,29.9721949,daily,supermarket,BİM,,supermarket,,,,
10303975965,node,40.8349805,29.4238828,daily,restaurant,Doğalhane,restaurant,,,,,
10303975973,node,40.8354803,29.4201947,daily,restaurant,,restaurant,,,,,
10581481482,node,40.8301573,29.41876,daily,cafe,Zeze Dondurm Çiğ köfte Kafe,cafe,,,,,
10604508591,node,40.8253259,29.4192158,health,pharmacy,Yenikent Eczanesi,pharmacy,,,,,
10605310840,node,40.8230077,29.418165,daily,supermarket,Hakmar,,supermarket,,,,
10605310850,node,40.8226624,29.4180064,daily,convenience,Kardeşler Kuruyemiş,,convenience,,,,
10605698210,node,40.8281075,29.4217329,daily,restaurant,Ciğerci Bulut,restaurant,,,,,
10639743730,node,40.7674867,29.9687786,daily,park,Yahya Kaptan,,,park,,,
10649933082,node,40.7461642,30.0637925,daily,restaurant,Safahat Lokantası,restaurant,,,,,
10649933083,node,40.7452386,30.0638818,daily,supermarket,Özdilek Süpermarket,,supermarket,,,,
10650387470,node,40.7629407,29.9114981,transport,bus_station,Batı Terminali,bus_station,,,,station,
10671757216,node,40.7684888,29.902471,health,pharmacy,Yenidoğan Eczanesi,pharmacy,,,,,
10671757233,node,40.7679602,29.9023918,health,pharmacy,Çınar Eczanesi,pharmacy,,,,,
10671757259,node,40.7682962,29.902537,daily,supermarket,BİM,,supermarket,,,,
10671757264,node,40.7678529,29.9027044,daily,supermarket,A101,,supermarket,,,,
10671776216,node,40.7675106,29.9031806,transport,bus_stop,,,,,bus_stop,platform,
10671776217,node,40.7675396,29.9033066,transport,bus_stop,,,,,bus_stop,platform,
10671776218,node,40.7677039,29.903726,transport,bus_stop,,,,,bus_stop,platform,
10671776219,node,40.767141,29.9040657,transport,bus_stop,,,,,bus_stop,platform,
10671776220,node,40.7674309,29.9048169,transport,bus_stop,,,,,bus_stop,platform,
10674850733,node,40.7578409,29.84869,daily,supermarket,Migros,,supermarket,,,,
10679353689,node,40.7416211,30.0205277,daily,supermarket,Hakmar Express,,supermarket,,,,
10679353699,node,40.740393,30.0185395,daily,supermarket,Malatya Kuruyemiş,,supermarket,,,,
10679421707,node,40.7401247,30.0174388,daily,restaurant,İkizler Pide & Lahmacun,restaurant,,,,,
10679421709,node,40.7398684,30.0170294,daily,convenience,Kupon Market,,convenience,,,,
10679421726,node,40.7389452,30.0151373,daily,supermarket,Türkiye Tarım Kredi Kooperatifleri,,supermarket,,,,
10679421733,node,40.7375108,30.0130654,daily,restaurant,Palmiye Ev Yemekleri,restaurant,,,,,
10679421744,node,40.7371574,30.0123458,other,driving_school,Hacıoğlu Sürücü Kursu,driving_school,,,,,
10679421753,node,40.7368329,30.0110014,daily,supermarket,A101,,supermarket,,,,
10679421777,node,40.7357839,30.011317,daily,supermarket,Yüksel Gross Market,,supermarket,,,,
10679421841,node,40.731362,30.0175242,daily,supermarket,Şok,,supermarket,,,,
10679422266,node,40.7457867,30.0517719,health,pharmacy,Simya Eczanesi,pharmacy,,,,,
10684098526,node,40.7703616,29.9102393,health,clinic,Gültepe Aile Sağlığı Merkezi,clinic,,,,,
10684098647,node,40.7702946,29.9093,health,pharmacy,Nuray Eczanesi,pharmacy,,,,,
10684369659,node,40.7459291,30.0624337,transport,bus_stop,,,,,bus_stop,platform,
10684393238,node,40.756362,30.0238518,daily,supermarket,Şok,,supermarket,,,,
10691708945,node,40.7539078,29.8101985,daily,supermarket,File,,supermarket,,,,
10692896007,node,40.7655729,29.8952912,health,clinic,Serdar Aile Sağlığı Merkezi,clinic,,,,,
10693017898,node,40.7650892,29.8886234,health,clinic,Yenimahalle Aile Sağlığı Merkezi,clinic,,,,,
10693368132,node,40.8266672,29.4176279,daily,supermarket,Migros,,supermarket,,,,
10694736200,node,40.796909,29.4427561,transport,bus_stop,Gebze Center AVM,,,,bus_stop,stop_position,
10694947200,node,40.8203526,29.4197616,daily,convenience,Seç Market,,convenience,,,,
10696494382,node,40.7646427,29.9410275,transport,bus_stop,,,,,bus_stop,platform,
10696494383,node,40.7641701,29.9407146,transport,bus_stop,,,,,bus_stop,platform,
10696543125,node,40.7633393,29.8868182,transport,bus_stop,,,,,bus_stop,platform,
10696543126,node,40.7637465,29.8918009,transport,bus_stop,Eğitim Kampüsü 1,,,,bus_stop,platform,
10696551505,node,40.7665552,29.9043256,transport,bus_stop,Yenidoğan D-100 1,,,,bus_stop,platform,
10696551506,node,40.7668547,29.904383,transport,bus_stop,,,,,bus_stop,platform,
10697379703,node,40.7728362,29.9796517,daily,cafe,Mackbear,cafe,,,,,
10697379704,node,40.7731203,29.9794408,daily,cafe,Pate,cafe,,,,,
10697390511,node,40.7730472,29.979482,daily,cafe,Mugs,cafe,,,,,
10702747038,node,40.7639195,29.890894,transport,bus_stop,,,,,bus_stop,platform,
